[
  {
    "id": "JDQ4MTg4MSM1MSMkMiMkMCMkMDAkNDgxMzUxIzIxIyQxIyQxIyQ5MiQzNjEwMDIjNzEjJDEjJDgjJDgz",
    "name": "(사)한국한센복지협회서울특별시지부부설의원",
    "addr": "서울특별시 동작구 상도로 170, 2층 (상도동)",
    "tel": "02-812-1894",
    "lat": 37.5040794,
    "lng": 126.938053,
    "gu": "동작구",
    "dong": "상도동",
    "estbDd": "19860109"
  },
  {
    "id": "JDQ4MTg4MSM1MSMkMiMkNCMkMDAkMzgxNzAyIzUxIyQxIyQxIyQ4MiQzNjE0ODEjODEjJDEjJDIjJDgz",
    "name": "(의) 열린의료재단 동대문열린의원",
    "addr": "서울특별시 종로구 종로 335, 원풍빌딩 6층 (창신동)",
    "tel": "02-924-0875",
    "lat": 37.573106,
    "lng": 127.0148389,
    "gu": "종로구",
    "dong": "창신동",
    "estbDd": "20080610"
  },
  {
    "id": "JDQ4MTg4MSM1MSMkMiMkNCMkMDAkNDgxMTkxIzExIyQxIyQzIyQ2MiQzNjEwMDIjNzEjJDEjJDgjJDgz",
    "name": "(의) 열린의료재단 상봉열린의원",
    "addr": "서울특별시 중랑구 면목로 492, 주연빌딩 7,8 일부층 (상봉동)",
    "tel": "02-435-0875",
    "lat": 37.5959148,
    "lng": 127.0859888,
    "gu": "중랑구",
    "dong": "상봉동",
    "estbDd": "20040308"
  },
  {
    "id": "JDQ4MTg4MSM1MSMkMiMkNCMkMDAkNDgxMTkxIzExIyQxIyQ3IyQ2MiQyNjE4MzIjNzEjJDEjJDgjJDgz",
    "name": "(의) 열린의료재단 영등포열린의원",
    "addr": "서울특별시 영등포구 경인로 841, 영등포우체국 4,5층 (영등포동4가)",
    "tel": "02-2676-0832",
    "lat": 37.5165276,
    "lng": 126.90606,
    "gu": "영등포구",
    "dong": "영등포동4가",
    "estbDd": "20010901"
  },
  {
    "id": "JDQ4MTg4MSM1MSMkMiMkMCMkMDAkNTgxOTYxIzExIyQxIyQzIyQ5OSQ0NjEwMDIjODEjJDEjJDIjJDgz",
    "name": "(의)미래의료재단리드림의원",
    "addr": "서울특별시 강남구 테헤란로 513, (삼성동, B1일부,4,9,10층,테헤란로81길10,B1일부,삼성로92길29,3,4)",
    "tel": "02-540-0001",
    "lat": 37.5079982,
    "lng": 127.0588976,
    "gu": "강남구",
    "dong": "삼성동",
    "estbDd": "20000712"
  },
  {
    "id": "JDQ4MTg4MSM1MSMkMiMkNCMkMDAkNDgxMzUxIzUxIyQxIyQxIyQ5OSQ0NjE0ODEjNzEjJDEjJDgjJDgz",
    "name": "(의)성광의료재단 차움의원",
    "addr": "서울특별시 강남구 도산대로 442, 피엔폴루스 2층일부, 3층일부 (청담동)",
    "tel": "02-3015-5000",
    "lat": 37.5233218,
    "lng": 127.0441055,
    "gu": "강남구",
    "dong": "청담동",
    "estbDd": "20100520"
  },
  {
    "id": "JDQ4MTg4MSM1MSMkMiMkMCMkMDAkNDgxNzAyIzExIyQxIyQzIyQ4OSQyNjEyMjIjNTEjJDEjJDIjJDgz",
    "name": "(재)이랜드재단 이랜드의원",
    "addr": "서울특별시 금천구 가산디지털1로 186, 제이플라츠 401~402호 (가산동)",
    "tel": "2635-8668",
    "lat": 37.4819131,
    "lng": 126.8815811,
    "gu": "금천구",
    "dong": "가산동",
    "estbDd": "20080117"
  },
  {
    "id": "JDQ4MTg4MSM1MSMkMiMkMCMkMDAkNDgxOTYxIzUxIyQxIyQxIyQxMyQzNjE0ODEjNzEjJDEjJDgjJDgz",
    "name": "(재)천주교서울대교구유지재단 전진상의원",
    "addr": "서울특별시 금천구 탑골로3가길 22, 전진상사회복지관 (시흥동)",
    "tel": "02-802-9311",
    "lat": 37.4525764,
    "lng": 126.9107378,
    "gu": "금천구",
    "dong": "시흥동",
    "estbDd": "19910926"
  },
  {
    "id": "JDQ4MTg4MSM1MSMkMiMkOCMkMDAkMzgxOTYxIzExIyQyIyQzIyQwMCQyNjE4MzIjNDEjJDEjJDQjJDgz",
    "name": "(주)제이시스메디칼부속의원",
    "addr": "서울특별시 강남구 강남대로 566, 신영와코루빌딩 1층 일부 (논현동)",
    "tel": "",
    "lat": 37.5125495,
    "lng": 127.0211992,
    "gu": "강남구",
    "dong": "논현동",
    "estbDd": "20230601"
  },
  {
    "id": "JDQ4MTg4MSM1MSMkMiMkNCMkMDAkMzgxNzAyIzIxIyQxIyQ5IyQ3MiQyNjE4MzIjNzEjJDEjJDgjJDgz",
    "name": "10년전당신의오늘의원",
    "addr": "서울특별시 강남구 도산대로 452, JS빌딩 3층 (청담동)",
    "tel": "02-541-0333",
    "lat": 37.5236241,
    "lng": 127.0457468,
    "gu": "강남구",
    "dong": "청담동",
    "estbDd": "20210827",
    "homepage": "https://youtube.com/@10yearsago_U",
    "category": "병원,의원>성형외과"
  },
  {
    "id": "JDQ4MTg4MSM1MSMkMiMkNCMkMDAkNDgxNzAyIzIxIyQxIyQxIyQ3MiQ0NjEwMDIjNjEjJDEjJDQjJDgz",
    "name": "111의원",
    "addr": "서울특별시 강남구 도산대로 111, (신사동, S-TOWER 11~12층)",
    "tel": "02-540-8111",
    "lat": 37.5169652,
    "lng": 127.020708,
    "gu": "강남구",
    "dong": "신사동",
    "estbDd": "20151119",
    "homepage": "https://blog.naver.com/sinsa8111",
    "category": "병원,의원>성형외과"
  },
  {
    "id": "JDQ4MTg4MSM1MSMkMiMkNCMkMDAkNDgxMzUxIzExIyQxIyQzIyQ4OSQyNjEyMjIjNDEjJDEjJDQjJDgz",
    "name": "123의원",
    "addr": "서울특별시 강남구 삼성로 212, 241호 (대치동, 은마상가 B블럭)",
    "tel": "02-567-9123",
    "lat": 37.4977415,
    "lng": 127.0650701,
    "gu": "강남구",
    "dong": "대치동",
    "estbDd": "20081017",
    "homepage": "https://blog.naver.com/daechi-123clinic",
    "category": "병원,의원>성형외과"
  },
  {
    "id": "JDQ4MTg4MSM1MSMkMiMkNCMkMDAkNDgxOTYxIzMxIyQyIyQzIyQwMCQyNjEyMjIjNDEjJDEjJDgjJDgz",
    "name": "1삼성탑의원",
    "addr": "서울특별시 성동구 고산자로 255, 5층 (도선동, 케이-타워)",
    "tel": "02-2299-8875",
    "lat": 37.5626006,
    "lng": 127.0357246,
    "gu": "성동구",
    "dong": "도선동",
    "estbDd": "20091104",
    "homepage": "http://topim.co.kr",
    "category": "병원,의원>내과"
  },
  {
    "id": "JDQ4MTg4MSM1MSMkMiMkNCMkMDAkNDgxMTkxIzIxIyQxIyQ1IyQ2MiQyNjEwMDIjNTEjJDEjJDYjJDgz",
    "name": "24시열린의원",
    "addr": "서울특별시 광진구 능동로 90, 3층 (자양동, 더클래식500)",
    "tel": "02-455-2475",
    "lat": 37.5386303,
    "lng": 127.0709719,
    "gu": "광진구",
    "dong": "자양동",
    "estbDd": "20130927",
    "homepage": "https://blog.naver.com/24clinic",
    "category": "병원,의원>내과",
    "homepage_status": "no_official"
  },
  {
    "id": "JDQ4MTg4MSM1MSMkMiMkOCMkMDAkMzgxMzUxIzIxIyQxIyQxIyQ4MiQzNjE4MzIjNDEjJDEjJDgjJDgz",
    "name": "24시열린의원",
    "addr": "서울특별시 마포구 월드컵북로 396, 누리꿈스퀘어 지하층 B1095호 (상암동)",
    "tel": "02-2132-2475",
    "lat": 37.5793419,
    "lng": 126.889819,
    "gu": "마포구",
    "dong": "상암동",
    "estbDd": "20171229",
    "homepage": "https://blog.naver.com/24clinic",
    "category": "병원,의원>내과"
  },
  {
    "id": "JDQ4MTg4MSM1MSMkMiMkOCMkMDAkMzgxMzUxIzMxIyQxIyQ3IyQwMyQyNjEwMDIjNTEjJDEjJDIjJDgz",
    "name": "24시열린의원",
    "addr": "서울특별시 송파구 백제고분로 187, 2층 205,206호 (잠실동, 파크인수)",
    "tel": "02-415-2475",
    "lat": 37.5047372,
    "lng": 127.0877638,
    "gu": "송파구",
    "dong": "잠실동",
    "estbDd": "20160104",
    "homepage": "https://blog.naver.com/24clinic",
    "category": "병원,의원>내과"
  },
  {
    "id": "JDQ4MTg4MSM1MSMkMiMkNCMkMDAkNTgxMzUxIzIxIyQxIyQxIyQxMyQzNjE4MzIjNTEjJDEjJDYjJDgz",
    "name": "365다움의원",
    "addr": "서울특별시 성동구 왕십리광장로 17, 왕십리민자역사 4층 (행당동)",
    "tel": "02-2297-1755",
    "lat": 37.5614086,
    "lng": 127.0384812,
    "gu": "성동구",
    "dong": "행당동",
    "estbDd": "20110419",
    "homepage": "https://blog.naver.com/dawoomcl",
    "category": "병원,의원>피부과"
  },
  {
    "id": "JDQ4MTg4MSM1MSMkMiMkNCMkMDAkMzgxNzAyIzMxIyQxIyQ3IyQ2MiQyNjE4MzIjNTEjJDEjJDIjJDgz",
    "name": "365더튼튼의원",
    "addr": "서울특별시 구로구 경인로 191, 2,3층 (오류동)",
    "tel": "02-2060-9111",
    "lat": 37.4956425,
    "lng": 126.8423266,
    "gu": "구로구",
    "dong": "오류동",
    "estbDd": "20080220"
  },
  {
    "id": "JDQ4MTg4MSM1MSMkMiMkNCMkMDAkNTgxMzUxIzQxIyQxIyQ3IyQ4MiQ0NjEwMDIjNDEjJDEjJDQjJDgz",
    "name": "365문정사랑의원",
    "addr": "서울특별시 송파구 송이로32길 37, 1층 (문정동, 문정푸르지오아파트)",
    "tel": "02-431-1339",
    "lat": 37.486776,
    "lng": 127.1273724,
    "gu": "송파구",
    "dong": "문정동",
    "estbDd": "20181214"
  },
  {
    "id": "JDQ4MTg4MSM1MSMkMiMkOCMkMDAkMzgxMzUxIzMxIyQxIyQ3IyQ2MiQyNjEwMDIjNTEjJDEjJDYjJDgz",
    "name": "365봄연합의원",
    "addr": "서울특별시 강서구 양천로 424, 가양역 데시앙플렉스 지식산업센터 227,236~240호 (등촌동)",
    "tel": "02-2054-6717",
    "lat": 37.5642277,
    "lng": 126.847971,
    "gu": "강서구",
    "dong": "등촌동",
    "estbDd": "20220803",
    "homepage": "https://blog.naver.com/365bom_doctor",
    "category": "병원,의원>내과"
  },
  {
    "id": "JDQ4MTg4MSM1MSMkMiMkNCMkMDAkNDgxNzAyIzExIyQxIyQ3IyQ5OSQ0NjE0ODEjODEjJDEjJDYjJDgz",
    "name": "365서울늘열린의원",
    "addr": "서울특별시 강동구 양재대로 1343, 2층 (성내동)",
    "tel": "02-484-4799",
    "lat": 37.5263466,
    "lng": 127.1352321,
    "gu": "강동구",
    "dong": "성내동",
    "estbDd": "20080213",
    "homepage": "https://blog.naver.com/4844799",
    "category": "병원,의원>내과"
  },
  {
    "id": "JDQ4MTg4MSM1MSMkMiMkNCMkMDAkMzgxNzAyIzUxIyQxIyQxIyQ4MiQ0NjE0ODEjNDEjJDEjJDgjJDgz",
    "name": "365서울연합의원",
    "addr": "서울특별시 중랑구 망우로 463, 2층 (망우동)",
    "tel": "02-432-7580",
    "lat": 37.600664,
    "lng": 127.103649,
    "gu": "중랑구",
    "dong": "망우동",
    "estbDd": "20080617"
  },
  {
    "id": "JDQ4MTg4MSM1MSMkMiMkOCMkMDAkMzgxMTkxIzMxIyQxIyQzIyQ3OSQzNjEwMDIjNDEjJDEjJDgjJDgz",
    "name": "365아이엠유의원",
    "addr": "서울특별시 송파구 송파대로 82, 장지역 104호 (장지동)",
    "tel": "02-401-0365",
    "lat": 37.4781192,
    "lng": 127.1264241,
    "gu": "송파구",
    "dong": "장지동",
    "estbDd": "20251219",
    "homepage": "https://blog.naver.com/365imujangji",
    "category": "병원,의원>내과"
  },
  {
    "id": "JDQ4MTg4MSM1MSMkMiMkNCMkMDAkMzgxNzAyIzIxIyQxIyQ1IyQ2MiQ0NjE0ODEjNjEjJDEjJDAjJDgz",
    "name": "365연세의원",
    "addr": "서울특별시 성동구 왕십리로 410, L동 3층 320호 (하왕십리동, 센트라스)",
    "tel": "02-2291-2211",
    "lat": 37.5665508,
    "lng": 127.0247865,
    "gu": "성동구",
    "dong": "하왕십리동",
    "estbDd": "20170407",
    "homepage": "https://365ysm-mo4.imweb.me",
    "category": "병원,의원>가정의학과"
  },
  {
    "id": "JDQ4MTg4MSM1MSMkMiMkMCMkMDAkNTgxOTYxIzIxIyQxIyQ5IyQ5OSQyNjE4MzIjNjEjJDEjJDAjJDgz",
    "name": "365열린의원",
    "addr": "서울특별시 강동구 올림픽로 664, 3층 (천호동, 대우한강베네시티)",
    "tel": "02-478-0365",
    "lat": 37.5406109,
    "lng": 127.1249414,
    "gu": "강동구",
    "dong": "천호동",
    "estbDd": "20100902",
    "homepage": "http://www.365medical.co.kr/",
    "category": "병원,의원>내과"
  },
  {
    "id": "JDQ4MTg4MSM1MSMkMiMkOCMkMDAkMzgxOTYxIzExIyQxIyQzIyQ3OSQ0NjEwMDIjNzEjJDEjJDgjJDgz",
    "name": "365온(ON)가정의원",
    "addr": "서울특별시 중구 왕십리로 407, B1층 2호 (신당동, 신당 파인힐 하나유보라)",
    "tel": "02-6212-0365",
    "lat": 37.5646232,
    "lng": 127.0246475,
    "gu": "중구",
    "dong": "신당동",
    "estbDd": "20230512"
  },
  {
    "id": "JDQ4MTg4MSM1MSMkMiMkMCMkMDAkNDgxOTYxIzUxIyQxIyQ1IyQxMyQyNjE4MzIjNjEjJDEjJDQjJDgz",
    "name": "365이화웃는세상의원",
    "addr": "서울특별시 은평구 진관3로 11, 3층 301호 (진관동, 은평뉴타운 힐데스하임)",
    "tel": "02-1600-1527",
    "lat": 37.639463,
    "lng": 126.918268,
    "gu": "은평구",
    "dong": "진관동",
    "estbDd": "20180920",
    "homepage": "https://blog.naver.com/ewhasmile07",
    "category": "병원,의원>소아청소년과"
  },
  {
    "id": "JDQ4MTg4MSM1MSMkMiMkNCMkMDAkMzgxNzAyIzMxIyQxIyQzIyQ5OSQzNjEwMDIjODEjJDEjJDIjJDgz",
    "name": "365코이의원",
    "addr": "서울특별시 강남구 강남대로118길 12, 부경빌딩 3층, 4층일부, 5층 (논현동)",
    "tel": "02-540-0442",
    "lat": 37.5063094,
    "lng": 127.0247472,
    "gu": "강남구",
    "dong": "논현동",
    "estbDd": "20200107",
    "homepage": "https://365koi.imweb.me",
    "category": "병원,의원>이비인후과"
  },
  {
    "id": "JDQ4MTg4MSM1MSMkMiMkNCMkMDAkNDgxNzAyIzExIyQxIyQzIyQwMyQyNjE4MzIjNjEjJDEjJDQjJDgz",
    "name": "365한국신통의원",
    "addr": "서울특별시 광진구 면목로 174, 2층 (중곡동)",
    "tel": "02-499-0906",
    "lat": 37.568676,
    "lng": 127.0830051,
    "gu": "광진구",
    "dong": "중곡동",
    "estbDd": "20150612"
  },
  {
    "id": "JDQ4MTg4MSM1MSMkMiMkOCMkMDAkMzgxMTkxIzExIyQxIyQ3IyQ4OSQyNjE0ODEjNTEjJDEjJDIjJDgz",
    "name": "365휘경사랑의원",
    "addr": "서울특별시 동대문구 망우로 77, 2층 (휘경동)",
    "tel": "02-2245-3638",
    "lat": 37.5902089,
    "lng": 127.0617848,
    "gu": "동대문구",
    "dong": "휘경동",
    "estbDd": "20250414"
  },
  {
    "id": "JDQ4MTg4MSM1MSMkMiMkNCMkMDAkNTgxMzUxIzExIyQxIyQ3IyQ3OSQzNjE4MzIjNDEjJDEjJDgjJDgz",
    "name": "365힐링의원",
    "addr": "서울특별시 강동구 천호대로 1087, 2층 201호 (천호동, 진넥스빌Ⅲ)",
    "tel": "02-475-3650",
    "lat": 37.5361797,
    "lng": 127.1327526,
    "gu": "강동구",
    "dong": "천호동",
    "estbDd": "20170608"
  },
  {
    "id": "JDQ4MTg4MSM1MSMkMiMkNCMkMDAkNTgxMzUxIzIxIyQxIyQ1IyQ5MiQyNjE0ODEjODEjJDEjJDIjJDgz",
    "name": "747의원",
    "addr": "서울특별시 강남구 도산대로 122, 에메랄드타워 8층 (논현동)",
    "tel": "02-546-0747",
    "lat": 37.516854,
    "lng": 127.0221405,
    "gu": "강남구",
    "dong": "논현동",
    "estbDd": "20251114",
    "homepage": "https://blog.naver.com/747clinic",
    "category": "병원,의원>피부과"
  },
  {
    "id": "JDQ4MTg4MSM1MSMkMiMkNCMkMDAkNDgxMTkxIzIxIyQxIyQ1IyQwMyQzNjE4MzIjNDEjJDEjJDgjJDgz",
    "name": "815의원",
    "addr": "서울특별시 강남구 논현로 822, 로뎀빌딩 4,5,6층 (신사동)",
    "tel": "02-515-8150",
    "lat": 37.521777,
    "lng": 127.0284681,
    "gu": "강남구",
    "dong": "신사동",
    "estbDd": "20180820",
    "homepage": "http://815clinic.co.kr/",
    "category": "병원,의원>피부과"
  },
  {
    "id": "JDQ4MTg4MSM1MSMkMiMkNCMkMDAkNDgxNzAyIzIxIyQxIyQxIyQ3MiQyNjE0ODEjNDEjJDEjJDgjJDgz",
    "name": "90일의기적의원",
    "addr": "서울특별시 강남구 도산대로 509, 에스디바이오센서 4층 (청담동)",
    "tel": "02-512-7515",
    "lat": 37.5247575,
    "lng": 127.0489629,
    "gu": "강남구",
    "dong": "청담동",
    "estbDd": "20241025",
    "homepage": "https://blog.naver.com/miracle90d",
    "category": "병원,의원>피부과"
  },
  {
    "id": "JDQ4MTg4MSM1MSMkMiMkMCMkMDAkNTgxMzUxIzExIyQxIyQ3IyQ4MiQzNjEyMjIjNTEjJDEjJDYjJDgz",
    "name": "BJ 라임의원",
    "addr": "서울특별시 관악구 과천대로 939, 르메이에르강남타운2 (남현동)",
    "tel": "02-588-1110",
    "lat": 37.4743938,
    "lng": 126.9814601,
    "gu": "관악구",
    "dong": "남현동",
    "estbDd": "20090310",
    "homepage": "https://blog.naver.com/tahiti1001",
    "category": "병원,의원>피부과"
  },
  {
    "id": "JDQ4MTg4MSM1MSMkMiMkNCMkMDAkMzgxNzAyIzIxIyQxIyQ1IyQxMyQzNjEwMDIjNjEjJDEjJDgjJDgz",
    "name": "BLS(비엘에스)의원",
    "addr": "서울특별시 강남구 도산대로67길 13-5, BLS클리닉빌딩 1,2,3,6층 (청담동)",
    "tel": "02-544-4841",
    "lat": 37.5249348,
    "lng": 127.0439268,
    "gu": "강남구",
    "dong": "청담동",
    "estbDd": "20070827",
    "homepage": "http://www.blsclinic1.com/",
    "category": "병원,의원>피부과"
  },
  {
    "id": "JDQ4MTg4MSM1MSMkMiMkMCMkMDAkNTgxOTYxIzIxIyQxIyQ5IyQ5MiQyNjE4MzIjNDEjJDEjJDgjJDgz",
    "name": "CNP차앤박피부과의원",
    "addr": "서울특별시 영등포구 여의나루로 53-1, 4층 (여의도동, 대오빌딩)",
    "tel": "02-786-5123",
    "lat": 37.5227131,
    "lng": 126.9249768,
    "gu": "영등포구",
    "dong": "여의도동",
    "estbDd": "20010419"
  },
  {
    "id": "JDQ4MTg4MSM1MSMkMiMkNCMkMDAkNDgxOTYxIzQxIyQxIyQ3IyQwMyQ0NjE0ODEjNDEjJDEjJDQjJDgz",
    "name": "Dr홍연합의원",
    "addr": "서울특별시 송파구 토성로 78, 203호 (풍납동)",
    "tel": "02-483-0075",
    "lat": 37.5280478,
    "lng": 127.1183932,
    "gu": "송파구",
    "dong": "풍납동",
    "estbDd": "20120601"
  },
  {
    "id": "JDQ4MTg4MSM1MSMkMiMkNCMkMDAkNTgxMzUxIzIxIyQxIyQ1IyQ3MiQzNjEwMDIjNjEjJDEjJDAjJDgz",
    "name": "S아이니의원",
    "addr": "서울특별시 구로구 도림로 90, 혜성빌딩 5층 (구로동)",
    "tel": "02-857-8812",
    "lat": 37.4903971,
    "lng": 126.8934458,
    "gu": "구로구",
    "dong": "구로동",
    "estbDd": "20170922"
  },
  {
    "id": "JDQ4MTg4MSM1MSMkMiMkMCMkMDAkNDgxNzAyIzIxIyQxIyQ1IyQxMyQyNjEwMDIjNDEjJDEjJDgjJDgz",
    "name": "WE(더블유이)의원",
    "addr": "서울특별시 영등포구 양평로 22, 당산타워 7층 (당산동6가)",
    "tel": "02-518-0045",
    "lat": 37.5331573,
    "lng": 126.9039335,
    "gu": "영등포구",
    "dong": "당산동6가",
    "estbDd": "20110801"
  },
  {
    "id": "JDQ4MTg4MSM1MSMkMiMkOCMkMDAkMzgxMzUxIzExIyQyIyQzIyQwMCQzNjE0ODEjNTEjJDEjJDIjJDgz",
    "name": "읻다의원",
    "addr": "서울특별시 강남구 도산대로 509, 에스디바이오센서 3층 (청담동)",
    "tel": "02-3442-7588",
    "lat": 37.5247575,
    "lng": 127.0489629,
    "gu": "강남구",
    "dong": "청담동",
    "estbDd": "20210707",
    "homepage": "http://iddaclinic.com",
    "category": "병원,의원>피부과"
  },
  {
    "id": "JDQ4MTg4MSM1MSMkMiMkNCMkMDAkNTgxOTYxIzMxIyQxIyQ3IyQxMyQ0NjE0ODEjNTEjJDEjJDIjJDgz",
    "name": "가미의원",
    "addr": "서울특별시 송파구 오금로 176, 지인빌딩 3층 (송파동)",
    "tel": "02-416-6700",
    "lat": 37.5090555,
    "lng": 127.113839,
    "gu": "송파구",
    "dong": "송파동",
    "estbDd": "20201111",
    "homepage": "https://www.kamiskin.co.kr/",
    "category": "병원,의원>피부과"
  },
  {
    "id": "JDQ4MTg4MSM1MSMkMiMkNCMkMDAkNTgxOTYxIzExIyQxIyQ3IyQxMyQyNjE4MzIjNDEjJDEjJDQjJDgz",
    "name": "가산연합의원",
    "addr": "서울특별시 금천구 가산디지털1로 186, 제이플라츠 403호 (가산동)",
    "tel": "02-1666-2500",
    "lat": 37.4819131,
    "lng": 126.8815811,
    "gu": "금천구",
    "dong": "가산동",
    "estbDd": "20191101",
    "homepage": "http://www.gasanclinic.com/",
    "category": "병원,의원>피부과"
  },
  {
    "id": "JDQ4MTg4MSM1MSMkMiMkNCMkMDAkNDgxMzUxIzMxIyQxIyQzIyQ4MiQzNjE4MzIjODEjJDEjJDYjJDgz",
    "name": "가야성모의원",
    "addr": "서울특별시 서초구 동광로18길 55, 2층 (방배동)",
    "tel": "532-2345",
    "lat": 37.489468,
    "lng": 126.9909924,
    "gu": "서초구",
    "dong": "방배동",
    "estbDd": "20091231"
  },
  {
    "id": "JDQ4MTg4MSM1MSMkMiMkMCMkMDAkNDgxOTYxIzExIyQxIyQzIyQ5OSQyNjE4MzIjNzEjJDEjJDgjJDgz",
    "name": "가족건강의원",
    "addr": "서울특별시 도봉구 해등로 218, (쌍문동)",
    "tel": "02-903-1556",
    "lat": 37.6581634,
    "lng": 127.0325391,
    "gu": "도봉구",
    "dong": "쌍문동",
    "estbDd": "19890502"
  },
  {
    "id": "JDQ4MTg4MSM1MSMkMiMkOCMkMDAkMzgxOTYxIzUxIyQxIyQ1IyQ5MiQ0NjEwMDIjNjEjJDEjJDQjJDgz",
    "name": "강남 리쥬엘의원",
    "addr": "서울특별시 서초구 강남대로 403, 8층 (서초동)",
    "tel": "02-537-8889",
    "lat": 37.4984782,
    "lng": 127.0268146,
    "gu": "서초구",
    "dong": "서초동",
    "estbDd": "20250205",
    "homepage": "http://pf.kakao.com/_xltfTn/friend",
    "category": "병원,의원>피부과"
  },
  {
    "id": "JDQ4MTg4MSM1MSMkMiMkMCMkMDAkNDgxMTkxIzIxIyQyIyQ5IyQwMCQzNjEwMDIjNDEjJDEjJDgjJDgz",
    "name": "강남12의원",
    "addr": "서울특별시 강남구 테헤란로 111, 4층 (역삼동, 대건빌딩)",
    "tel": "02-567-3000",
    "lat": 37.4988903,
    "lng": 127.0292963,
    "gu": "강남구",
    "dong": "역삼동",
    "estbDd": "20151228",
    "homepage": "http://www.gangnam12.co.kr/",
    "category": "병원,의원>성형외과"
  },
  {
    "id": "JDQ4MTg4MSM1MSMkMiMkNCMkMDAkMzgxMTkxIzQxIyQxIyQ3IyQ3MiQzNjE4MzIjNTEjJDEjJDYjJDgz",
    "name": "강남고운세상피부과의원",
    "addr": "서울특별시 강남구 테헤란로2길 8, 3층 (역삼동)",
    "tel": "02-3477-2020",
    "lat": 37.4976293,
    "lng": 127.0287286,
    "gu": "강남구",
    "dong": "역삼동",
    "estbDd": "20160922",
    "homepage": "http://www.gowoonss.com/cheongdam/",
    "category": "병원,의원>피부과"
  },
  {
    "id": "JDQ4MTg4MSM1MSMkMiMkOCMkMDAkMzgxMTkxIzIxIyQxIyQ5IyQ4OSQzNjEyMjIjNDEjJDEjJDgjJDgz",
    "name": "강남다움의원",
    "addr": "서울특별시 서초구 강남대로 419, 파고다타워 지하2층 (서초동)",
    "tel": "02-6557-7701",
    "lat": 37.4998135,
    "lng": 127.0262296,
    "gu": "서초구",
    "dong": "서초동",
    "estbDd": "20251021",
    "homepage": "http://gd-clinic.com/",
    "category": "병원,의원>피부과"
  },
  {
    "id": "JDQ4MTg4MSM1MSMkMiMkOCMkMDAkMzgxOTYxIzUxIyQxIyQxIyQ3OSQyNjE0ODEjNjEjJDEjJDAjJDgz",
    "name": "강남닥터에버스의원",
    "addr": "서울특별시 강남구 강남대로 458, 남영빌딩 8~10층 (역삼동)",
    "tel": "02-2138-0777",
    "lat": 37.5034185,
    "lng": 127.0254743,
    "gu": "강남구",
    "dong": "역삼동",
    "estbDd": "20241002",
    "homepage": "https://evers19.co.kr/",
    "category": "병원,의원>피부과"
  },
  {
    "id": "JDQ4MTg4MSM1MSMkMiMkNCMkMDAkNTgxMzUxIzExIyQyIyQ3IyQwMCQyNjEwMDIjNjEjJDEjJDAjJDgz",
    "name": "강남더슬림의원",
    "addr": "서울특별시 서초구 신반포로 315, 삼덕빌딩 4층 (잠원동)",
    "tel": "02-547-9877",
    "lat": 37.5104449,
    "lng": 127.0182583,
    "gu": "서초구",
    "dong": "잠원동",
    "estbDd": "20170713",
    "homepage": "https://www.youtube.com/@slimTV",
    "category": "건강,의료>병원,의원"
  },
  {
    "id": "JDQ4MTg4MSM1MSMkMiMkNCMkMDAkNTgxMzUxIzExIyQxIyQ3IyQ2MiQyNjE4MzIjODEjJDEjJDIjJDgz",
    "name": "강남더의원",
    "addr": "서울특별시 강남구 학동로 342, 에스케이 허브블루 4층 404호 (논현동)",
    "tel": "0507-1327-7975",
    "lat": 37.5167495,
    "lng": 127.0408461,
    "gu": "강남구",
    "dong": "논현동",
    "estbDd": "20180824",
    "homepage": "https://www.instagram.com/gn_the_clinic",
    "category": "병원,의원>비뇨의학과"
  },
  {
    "id": "JDQ4MTg4MSM1MSMkMiMkOCMkMDAkMzgxMzUxIzExIyQxIyQ3IyQ4OSQ0NjE0ODEjNzEjJDEjJDgjJDgz",
    "name": "강남디렉터의원",
    "addr": "서울특별시 서초구 서초대로77길 62, 강남역 IPARK L108호 제108호~113호 (서초동)",
    "tel": "02-6010-1300",
    "lat": 37.5027557,
    "lng": 127.0239029,
    "gu": "서초구",
    "dong": "서초동",
    "estbDd": "20260123",
    "homepage": "https://blog.naver.com/sfdfsdf772",
    "category": "병원,의원>피부과"
  },
  {
    "id": "JDQ4MTg4MSM1MSMkMiMkNCMkMDAkNTgxOTYxIzExIyQxIyQzIyQxMyQ0NjE0ODEjNjEjJDEjJDAjJDgz",
    "name": "강남라렌의원",
    "addr": "서울특별시 강남구 강남대로 378, 준빌딩 10층 (역삼동)",
    "tel": "02-894-7781",
    "lat": 37.4966716,
    "lng": 127.0286835,
    "gu": "강남구",
    "dong": "역삼동",
    "estbDd": "20190828",
    "homepage": "http://gwangmyeong.lareinegroup.co.kr/",
    "category": "병원,의원>피부과"
  },
  {
    "id": "JDQ4MTg4MSM1MSMkMiMkNCMkMDAkNTgxOTYxIzIxIyQxIyQ5IyQ3MiQyNjE4MzIjNDEjJDEjJDQjJDgz",
    "name": "강남라해의원",
    "addr": "서울특별시 강남구 강남대로 548, 건우빌딩 7층 (논현동)",
    "tel": "02-598-0612",
    "lat": 37.511039,
    "lng": 127.0219111,
    "gu": "강남구",
    "dong": "논현동",
    "estbDd": "20200424",
    "homepage": "http://rahae2.co.kr",
    "category": "건강,의료>병원,의원"
  },
  {
    "id": "JDQ4MTg4MSM1MSMkMiMkNCMkMDAkMzgxOTYxIzIxIyQxIyQ5IyQ4OSQ0NjE0ODEjODEjJDEjJDIjJDgz",
    "name": "강남로미모의원",
    "addr": "서울특별시 강남구 테헤란로 107, 비전타워 11층 (역삼동)",
    "tel": "02-566-6623",
    "lat": 37.498664,
    "lng": 127.0287237,
    "gu": "강남구",
    "dong": "역삼동",
    "estbDd": "20111212",
    "homepage": "http://www.romimo.co.kr",
    "category": "병원,의원>피부과"
  },
  {
    "id": "JDQ4MTg4MSM1MSMkMiMkNCMkMDAkNTgxOTYxIzUxIyQxIyQ1IyQ4OSQyNjE0ODEjODEjJDEjJDIjJDgz",
    "name": "강남리슬림의원",
    "addr": "서울특별시 서초구 강남대로 435, 주류성빌딩 14층 (서초동)",
    "tel": "02-536-3962",
    "lat": 37.5011826,
    "lng": 127.0255738,
    "gu": "서초구",
    "dong": "서초동",
    "estbDd": "20211122",
    "homepage": "http://reslim.co.kr/",
    "category": "건강,의료>병원,의원"
  },
  {
    "id": "JDQ4MTg4MSM1MSMkMiMkNCMkMDAkNDgxMTkxIzMxIyQxIyQ3IyQ3OSQyNjEwMDIjNTEjJDEjJDYjJDgz",
    "name": "강남리즈의료생활협동조합 강남리즈의원",
    "addr": "서울특별시 구로구 도림로23길 2, 한호빌딩 2층 (구로동)",
    "tel": "863-0075",
    "lat": 37.4911348,
    "lng": 126.8935561,
    "gu": "구로구",
    "dong": "구로동",
    "estbDd": "20130412",
    "homepage": "http://leedsclinic.co.kr/",
    "category": "병원,의원>성형외과"
  },
  {
    "id": "JDQ4MTg4MSM1MSMkMiMkOCMkMDAkMzgxOTYxIzUxIyQxIyQ1IyQ4OSQyNjE4MzIjNTEjJDEjJDIjJDgz",
    "name": "강남메이퓨어의원",
    "addr": "서울특별시 강남구 역삼로1길 18, 3층 일부층 (역삼동)",
    "tel": "02-6959-5676",
    "lat": 37.4944418,
    "lng": 127.0306538,
    "gu": "강남구",
    "dong": "역삼동",
    "estbDd": "20140516",
    "homepage": "https://www.maypureclinic.com/ko/",
    "category": "병원,의원>피부과"
  },
  {
    "id": "JDQ4MTg4MSM1MSMkMiMkNCMkMDAkMzgxNzAyIzExIyQxIyQ3IyQwMyQzNjE4MzIjNTEjJDEjJDIjJDgz",
    "name": "강남미앤미의원",
    "addr": "서울특별시 서초구 강남대로 439, 유화빌딩 8층 901호 (서초동)",
    "tel": "02-567-1102",
    "lat": 37.5015461,
    "lng": 127.0254021,
    "gu": "서초구",
    "dong": "서초동",
    "estbDd": "20070315",
    "homepage": "http://gn.branch.mimimi.co.kr/event/event_list.php",
    "category": "병원,의원>피부과"
  },
  {
    "id": "JDQ4MTg4MSM1MSMkMiMkNCMkMDAkNDgxOTYxIzIxIyQxIyQ5IyQ3MiQzNjEwMDIjNjEjJDEjJDAjJDgz",
    "name": "강남미의원",
    "addr": "서울특별시 강남구 테헤란로 128, 6층 (역삼동, 성곡빌딩)",
    "tel": "564-7328",
    "lat": 37.4991385,
    "lng": 127.0326083,
    "gu": "강남구",
    "dong": "역삼동",
    "estbDd": "20110901",
    "homepage": "http://gangnammi.com",
    "category": "병원,의원>피부과"
  },
  {
    "id": "JDQ4MTg4MSM1MSMkMiMkMCMkMDAkNDgxMzUxIzUxIyQxIyQ1IyQ5OSQzNjE4MzIjNDEjJDEjJDgjJDgz",
    "name": "강남미켈란의원",
    "addr": "서울특별시 강남구 도산대로 521, 3층 (청담동)",
    "tel": "02-540-0808",
    "lat": 37.5248741,
    "lng": 127.0504024,
    "gu": "강남구",
    "dong": "청담동",
    "estbDd": "20000923",
    "homepage": "http://mhair.co.kr/",
    "category": "건강,의료>병원,의원"
  },
  {
    "id": "JDQ4MTg4MSM1MSMkMiMkOCMkMDAkMzgxMTkxIzIxIyQxIyQ5IyQ5OSQ0NjEwMDIjNTEjJDEjJDIjJDgz",
    "name": "강남밴스의원",
    "addr": "서울특별시 서초구 강남대로 411, 12~13층 (서초동)",
    "tel": "",
    "lat": 37.499162,
    "lng": 127.0265313,
    "gu": "서초구",
    "dong": "서초동",
    "estbDd": "20240730",
    "homepage": "https://gangnam.vandsclinic.co.kr/?channel=4149",
    "category": "병원,의원>피부과"
  },
  {
    "id": "JDQ4MTg4MSM1MSMkMiMkOCMkMDAkMzgxMTkxIzIxIyQxIyQ5IyQ2MiQyNjEyMjIjNDEjJDEjJDQjJDgz",
    "name": "강남브엘의원",
    "addr": "서울특별시 강남구 봉은사로 111, 8층 (논현동)",
    "tel": "02-517-3777",
    "lat": 37.5051993,
    "lng": 127.025723,
    "gu": "강남구",
    "dong": "논현동",
    "estbDd": "20251106",
    "homepage": "https://vlcell.com/",
    "category": "병원,의원>피부과"
  },
  {
    "id": "JDQ4MTg4MSM1MSMkMiMkNCMkMDAkNTgxOTYxIzExIyQxIyQ3IyQwMyQyNjEyMjIjNjEjJDEjJDAjJDgz",
    "name": "강남브이에스(VS)라인의원",
    "addr": "서울특별시 강남구 테헤란로 107, 메디타워 3층 (역삼동)",
    "tel": "02-535-1312",
    "lat": 37.498664,
    "lng": 127.0287237,
    "gu": "강남구",
    "dong": "역삼동",
    "estbDd": "20191104",
    "homepage": "http://vsline2.co.kr",
    "category": "병원,의원>피부과"
  },
  {
    "id": "JDQ4MTg4MSM1MSMkMiMkOCMkMDAkMzgxOTYxIzExIyQxIyQzIyQxMyQ0NjEwMDIjNTEjJDEjJDIjJDgz",
    "name": "강남비비의원",
    "addr": "서울특별시 서초구 서초대로77길 5, 4층 (서초동)",
    "tel": "",
    "lat": 37.4983376,
    "lng": 127.0264037,
    "gu": "서초구",
    "dong": "서초동",
    "estbDd": "20230803",
    "homepage": "https://viiviiclinic.com",
    "category": "병원,의원>피부과"
  },
  {
    "id": "JDQ4MTg4MSM1MSMkMiMkNCMkMDAkNTgxMzUxIzExIyQxIyQ3IyQxMyQyNjE4MzIjNjEjJDEjJDAjJDgz",
    "name": "강남비앤비의원",
    "addr": "서울특별시 강남구 강남대로 616, 신사미타워 9층 901호 (신사동)",
    "tel": "02-544-6633",
    "lat": 37.5168437,
    "lng": 127.0198235,
    "gu": "강남구",
    "dong": "신사동",
    "estbDd": "20151223",
    "homepage": "https://blog.naver.com/kangnambnb",
    "category": "병원,의원>피부과"
  },
  {
    "id": "JDQ4MTg4MSM1MSMkMiMkOCMkMDAkMzgxMTkxIzMxIyQxIyQzIyQxMyQ0NjE0ODEjNDEjJDEjJDgjJDgz",
    "name": "강남비엘에스의원",
    "addr": "서울특별시 강남구 강남대로 432, 점프밀라노 8층 4호 (역삼동)",
    "tel": "02-6677-2777",
    "lat": 37.501235,
    "lng": 127.0266249,
    "gu": "강남구",
    "dong": "역삼동",
    "estbDd": "20260226",
    "homepage": "https://www.blsclinic8.com/",
    "category": "병원,의원>피부과"
  },
  {
    "id": "JDQ4MTg4MSM1MSMkMiMkNCMkMDAkMzgxMTkxIzUxIyQxIyQxIyQ3MiQzNjEyMjIjNDEjJDEjJDgjJDgz",
    "name": "강남셀리팅의원",
    "addr": "서울특별시 강남구 테헤란로 121, 11층, 13층 1101, 1301호(역삼동, 원빌딩) (역삼동)",
    "tel": "02-555-1382",
    "lat": 37.499421,
    "lng": 127.0310754,
    "gu": "강남구",
    "dong": "역삼동",
    "estbDd": "20090805",
    "homepage": "https://blog.naver.com/celliting_gangnam",
    "category": "병원,의원>피부과"
  },
  {
    "id": "JDQ4MTg4MSM1MSMkMiMkOCMkMDAkMzgxMzUxIzExIyQxIyQzIyQ5MiQyNjE0ODEjODEjJDEjJDYjJDgz",
    "name": "강남쏘울의원",
    "addr": "서울특별시 강남구 선릉로129길 22, 고영빌딩 2층 (논현동)",
    "tel": "02-545-5834",
    "lat": 37.5161365,
    "lng": 127.0396693,
    "gu": "강남구",
    "dong": "논현동",
    "estbDd": "20210806"
  },
  {
    "id": "JDQ4MTg4MSM1MSMkMiMkOCMkMDAkMzgxOTYxIzMxIyQxIyQzIyQ3OSQyNjE4MzIjNDEjJDEjJDQjJDgz",
    "name": "강남아이디의원",
    "addr": "서울특별시 서초구 강남대로 437, 대원빌딩 11층 (서초동)",
    "tel": "02-862-7556",
    "lat": 37.5013657,
    "lng": 127.0255201,
    "gu": "서초구",
    "dong": "서초동",
    "estbDd": "20221103",
    "homepage": "https://blog.naver.com/gnidclinc_",
    "category": "병원,의원>피부과"
  },
  {
    "id": "JDQ4MTg4MSM1MSMkMiMkNCMkMDAkNTgxMzUxIzQxIyQxIyQ3IyQ2MiQyNjEyMjIjODEjJDEjJDIjJDgz",
    "name": "강남엔비의원",
    "addr": "서울특별시 서초구 서초대로77길 17, BLOCK77 8층 801호 (서초동)",
    "tel": "02-1661-5541",
    "lat": 37.4995536,
    "lng": 127.0257524,
    "gu": "서초구",
    "dong": "서초동",
    "estbDd": "20200616",
    "homepage": "http://www.envyclinic.co.kr",
    "category": "병원,의원>피부과"
  },
  {
    "id": "JDQ4MTg4MSM1MSMkMiMkNCMkMDAkNTgxOTYxIzIxIyQxIyQxIyQ5OSQyNjE0ODEjNDEjJDEjJDgjJDgz",
    "name": "강남역데이원의원",
    "addr": "서울특별시 서초구 강남대로 423, 한승빌딩 4층 402호 (서초동)",
    "tel": "02-594-5001",
    "lat": 37.5002585,
    "lng": 127.0258452,
    "gu": "서초구",
    "dong": "서초동",
    "estbDd": "20191203",
    "homepage": "https://www.youtube.com/@DayoneClinicDrChan",
    "category": "병원,의원>피부과"
  },
  {
    "id": "JDQ4MTg4MSM1MSMkMiMkNCMkMDAkNDgxMTkxIzExIyQxIyQ3IyQ4MiQyNjEyMjIjNTEjJDEjJDYjJDgz",
    "name": "강남연세라인의원",
    "addr": "서울특별시 강남구 테헤란로 101, 4층 (역삼동, 이즈타워)",
    "tel": "02-563-2060",
    "lat": 37.4986211,
    "lng": 127.0280297,
    "gu": "강남구",
    "dong": "역삼동",
    "estbDd": "20130412",
    "homepage": "http://www.ylclinic.com/",
    "category": "병원,의원>피부과"
  },
  {
    "id": "JDQ4MTg4MSM1MSMkMiMkMCMkMDAkNTgxMzUxIzQxIyQxIyQ3IyQ5OSQzNjE4MzIjNDEjJDEjJDgjJDgz",
    "name": "강남우리집의원",
    "addr": "서울특별시 강남구 개포로 229, 정원빌딩 2층 4호 (개포동)",
    "tel": "2291-8885",
    "lat": 37.4790306,
    "lng": 127.0477824,
    "gu": "강남구",
    "dong": "개포동",
    "estbDd": "20090615",
    "homepage": "http://pf.kakao.com/_vCUxfb",
    "category": "건강,의료>병원,의원"
  },
  {
    "id": "JDQ4MTg4MSM1MSMkMiMkNCMkMDAkMzgxMzUxIzIxIyQyIyQxIyQwMCQzNjE4MzIjNjEjJDEjJDgjJDgz",
    "name": "강남우태하피부과의원",
    "addr": "서울특별시 강남구 강남대로 370, 5층 (역삼동, 강남클리닉빌딩)",
    "tel": "02-567-1675",
    "lat": 37.4958654,
    "lng": 127.0292292,
    "gu": "강남구",
    "dong": "역삼동",
    "estbDd": "20020419",
    "homepage": "http://wooskin.co.kr/2014_wooskin/",
    "category": "병원,의원>피부과"
  },
  {
    "id": "JDQ4MTg4MSM1MSMkMiMkNCMkMDAkNDgxMzUxIzUxIyQxIyQxIyQ4OSQ0NjEwMDIjODEjJDEjJDIjJDgz",
    "name": "강남원의원",
    "addr": "서울특별시 강남구 자곡로 180, 강남유탑유블레스 1층 109, 109-2호 (자곡동)",
    "tel": "02-6927-1655",
    "lat": 37.4736941,
    "lng": 127.103394,
    "gu": "강남구",
    "dong": "자곡동",
    "estbDd": "20211209",
    "homepage": "https://sites.google.com/view/gangnamwon1/%ED%99%88",
    "category": "병원,의원>가정의학과"
  },
  {
    "id": "JDQ4MTg4MSM1MSMkMiMkMCMkMDAkMzgxOTYxIzExIyQxIyQ3IyQ5MiQzNjE0ODEjNjEjJDEjJDgjJDgz",
    "name": "강남웰남성의원",
    "addr": "서울특별시 강남구 테헤란로51길 10, 정다운빌딩 4층일부 (역삼동)",
    "tel": "02-554-1203",
    "lat": 37.5047812,
    "lng": 127.0469996,
    "gu": "강남구",
    "dong": "역삼동",
    "estbDd": "20180607",
    "homepage": "http://www.gnwell.com",
    "category": "병원,의원>비뇨의학과"
  },
  {
    "id": "JDQ4MTg4MSM1MSMkMiMkNCMkMDAkNDgxOTYxIzMxIyQxIyQ3IyQ3OSQ0NjE0ODEjNjEjJDEjJDQjJDgz",
    "name": "강남유앤아이의원",
    "addr": "서울특별시 강남구 강남대로 470, 808타워 6층 (역삼동)",
    "tel": "02-6927-6022",
    "lat": 37.5043479,
    "lng": 127.0250552,
    "gu": "강남구",
    "dong": "역삼동",
    "estbDd": "20180329",
    "homepage": "https://www.uni114.co.kr/",
    "category": "병원,의원>피부과"
  },
  {
    "id": "JDQ4MTg4MSM1MSMkMiMkMCMkMDAkNDgxOTYxIzExIyQxIyQzIyQ5MiQzNjEyMjIjODEjJDEjJDIjJDgz",
    "name": "강남의원",
    "addr": "서울특별시 종로구 자하문로 58, 4층 (창성동, 강락빌딩)",
    "tel": "02-737-2880",
    "lat": 37.5812485,
    "lng": 126.9712471,
    "gu": "종로구",
    "dong": "창성동",
    "estbDd": "20120619",
    "homepage": "http://www.whasang.co.kr/",
    "category": "병원,의원>외과"
  },
  {
    "id": "JDQ4MTg4MSM1MSMkMiMkNCMkMDAkMzgxMzUxIzIxIyQxIyQ1IyQ2MiQ0NjEwMDIjNjEjJDEjJDgjJDgz",
    "name": "강남의원",
    "addr": "서울특별시 강북구 오현로32길 4-8, (번동, 동보프라자빌딩)",
    "tel": "02-987-1124",
    "lat": 37.6282562,
    "lng": 127.0395468,
    "gu": "강북구",
    "dong": "번동",
    "estbDd": "20050205"
  },
  {
    "id": "JDQ4MTg4MSM1MSMkMiMkNCMkMDAkNDgxOTYxIzIxIyQxIyQ5IyQ3OSQyNjEyMjIjNTEjJDEjJDYjJDgz",
    "name": "강남의원",
    "addr": "서울특별시 송파구 마천로51길 2, 2층 (마천동, 수정빌딩)",
    "tel": "02-408-7999",
    "lat": 37.4955212,
    "lng": 127.1505264,
    "gu": "송파구",
    "dong": "마천동",
    "estbDd": "20110803"
  },
  {
    "id": "JDQ4MTg4MSM1MSMkMiMkOCMkMDAkMzgxMTkxIzMxIyQxIyQ3IyQ5OSQyNjEwMDIjNDEjJDEjJDQjJDgz",
    "name": "강남채원의원",
    "addr": "서울특별시 서초구 서초대로78길 36, 강남지웰타워 7층 701호 (서초동)",
    "tel": "02-598-4550",
    "lat": 37.4947195,
    "lng": 127.028171,
    "gu": "서초구",
    "dong": "서초동",
    "estbDd": "20260213",
    "homepage": "https://chaewonclinic.imweb.me/",
    "category": "병원,의원>내과"
  },
  {
    "id": "JDQ4MTg4MSM1MSMkMiMkNCMkMDAkNDgxMzUxIzQxIyQxIyQ3IyQ4MiQzNjE0ODEjNzEjJDEjJDgjJDgz",
    "name": "강남킴스의원",
    "addr": "서울특별시 서초구 잠원로3길 40, 태남홀딩스 304, 305호 (잠원동)",
    "tel": "02-532-5975",
    "lat": 37.5082154,
    "lng": 127.0036767,
    "gu": "서초구",
    "dong": "잠원동",
    "estbDd": "20100419",
    "homepage": "https://blog.naver.com/zamsunhi1",
    "category": "병원,의원>가정의학과"
  },
  {
    "id": "JDQ4MTg4MSM1MSMkMiMkOCMkMDAkMzgxMzUxIzMxIyQxIyQ3IyQ4OSQzNjE4MzIjNDEjJDEjJDgjJDgz",
    "name": "강남타임의원",
    "addr": "서울특별시 강남구 강남대로 476, urbanhive 9층 (논현동)",
    "tel": "02-6353-0572",
    "lat": 37.5049158,
    "lng": 127.0248029,
    "gu": "강남구",
    "dong": "논현동",
    "estbDd": "20220712",
    "homepage": "http://www.gangnamtime.com",
    "category": "병원,의원>피부과"
  },
  {
    "id": "JDQ4MTg4MSM1MSMkMiMkNCMkMDAkNDgxMTkxIzUxIyQxIyQ1IyQ4OSQyNjE0ODEjNDEjJDEjJDgjJDgz",
    "name": "강남펜타힐의원",
    "addr": "서울특별시 서초구 강남대로 349, 우남빌딩 4,10층 (서초동)",
    "tel": "1899-2536",
    "lat": 37.4938596,
    "lng": 127.0291104,
    "gu": "서초구",
    "dong": "서초동",
    "estbDd": "20170829",
    "homepage": "https://blog.naver.com/pentaheal",
    "category": "건강,의료>병원,의원"
  },
  {
    "id": "JDQ4MTg4MSM1MSMkMiMkOCMkMDAkMzgxMzUxIzUxIyQxIyQ1IyQxMyQzNjEyMjIjNDEjJDEjJDQjJDgz",
    "name": "강남플랜에스의원",
    "addr": "서울특별시 강남구 강남대로 408, YBM강남센터 B1,2층 (역삼동)",
    "tel": "02-2135-6365",
    "lat": 37.4992268,
    "lng": 127.0275554,
    "gu": "강남구",
    "dong": "역삼동",
    "estbDd": "20230503",
    "homepage": "http://www.plansclinic.com",
    "category": "건강,의료>병원,의원"
  },
  {
    "id": "JDQ4MTg4MSM1MSMkMiMkNCMkMDAkNDgxOTYxIzMxIyQxIyQ3IyQ4OSQzNjE4MzIjNjEjJDEjJDAjJDgz",
    "name": "강남피어리의원",
    "addr": "서울특별시 강남구 강남대로 590, 10층 (논현동, 미혜빌딩)",
    "tel": "02-515-0202",
    "lat": 37.5145482,
    "lng": 127.0204374,
    "gu": "강남구",
    "dong": "논현동",
    "estbDd": "20110830",
    "homepage": "https://www.instagram.com/periclinic2025",
    "category": "병원,의원>성형외과"
  },
  {
    "id": "JDQ4MTg4MSM1MSMkMiMkOCMkMDAkMzgxMTkxIzIxIyQxIyQ1IyQ5MiQzNjE4MzIjNjEjJDEjJDgjJDgz",
    "name": "강남피어봄의원",
    "addr": "서울특별시 서초구 강남대로 365, 대우도씨에빛 1차 3층 301, 302호 (서초동)",
    "tel": "02-1644-8343",
    "lat": 37.4953861,
    "lng": 127.0283406,
    "gu": "서초구",
    "dong": "서초동",
    "estbDd": "20121002",
    "homepage": "http://gn.pieobom.com/",
    "category": "병원,의원>피부과"
  },
  {
    "id": "JDQ4MTg4MSM1MSMkMiMkMCMkMDAkNDgxNzAyIzExIyQxIyQzIyQ5OSQzNjE0ODEjNjEjJDEjJDgjJDgz",
    "name": "강남하트스캔의원",
    "addr": "서울특별시 강남구 테헤란로114길 38, 동일타워 지하1층 (대치동)",
    "tel": "564-3070",
    "lat": 37.5071243,
    "lng": 127.0669929,
    "gu": "강남구",
    "dong": "대치동",
    "estbDd": "19990909",
    "homepage": "http://www.heartscan.co.kr/",
    "category": "병원>건강검진"
  },
  {
    "id": "JDQ4MTg4MSM1MSMkMiMkMCMkMDAkNDgxNzAyIzUxIyQxIyQ1IyQwMyQyNjE4MzIjODEjJDEjJDYjJDgz",
    "name": "강동성신의원",
    "addr": "서울특별시 송파구 백제고분로 457, (방이동)",
    "tel": "02-415-0446",
    "lat": 37.5115228,
    "lng": 127.1126512,
    "gu": "송파구",
    "dong": "방이동",
    "estbDd": "19920509"
  },
  {
    "id": "JDQ4MTg4MSM1MSMkMiMkMCMkMDAkMzgxMTkxIzIxIyQxIyQ5IyQ5OSQyNjEyMjIjODEjJDEjJDIjJDgz",
    "name": "강동아이비의원",
    "addr": "서울특별시 강동구 천호대로 1131, 거산 유팰리스 3,4층 (길동)",
    "tel": "02-484-7525",
    "lat": 37.5347915,
    "lng": 127.1372467,
    "gu": "강동구",
    "dong": "길동",
    "estbDd": "20220712",
    "homepage": "http://www.gangdongivy.kr/",
    "category": "병원,의원>가정의학과"
  },
  {
    "id": "JDQ4MTg4MSM1MSMkMiMkNCMkMDAkNTgxOTYxIzQxIyQyIyQ3IyQwMCQzNjEyMjIjODEjJDEjJDYjJDgz",
    "name": "강동오아로피부과의원",
    "addr": "서울특별시 강동구 고덕로 262, 고덕역 효성해링턴 타워 더퍼스트 404~406호 (명일동)",
    "tel": "02-427-6556",
    "lat": 37.5546669,
    "lng": 127.1546266,
    "gu": "강동구",
    "dong": "명일동",
    "estbDd": "20201211",
    "homepage": "http://oarogd.com",
    "category": "병원,의원>피부과"
  },
  {
    "id": "JDQ4MTg4MSM1MSMkMiMkOCMkMDAkMzgxMTkxIzMxIyQxIyQ3IyQ4MiQzNjE4MzIjODEjJDEjJDIjJDgz",
    "name": "강동우태하피부과의원",
    "addr": "서울특별시 강동구 양재대로 1317, 경일빌딩 3층 301호 (성내동)",
    "tel": "02-6228-1231",
    "lat": 37.5239971,
    "lng": 127.1343733,
    "gu": "강동구",
    "dong": "성내동",
    "estbDd": "20260318",
    "homepage": "https://gdwooskin.com",
    "category": "병원,의원>피부과"
  },
  {
    "id": "JDQ4MTg4MSM1MSMkMiMkOCMkMDAkMzgxOTYxIzExIyQxIyQ3IyQ2MiQ0NjE0ODEjNjEjJDEjJDAjJDgz",
    "name": "강동이엠365의원",
    "addr": "서울특별시 강동구 아리수로93나길 76, 2,3,4,5층 (강일동)",
    "tel": "02-428-9111",
    "lat": 37.5724703,
    "lng": 127.1759358,
    "gu": "강동구",
    "dong": "강일동",
    "estbDd": "20230829",
    "homepage": "https://blog.naver.com/kdem365",
    "category": "건강,의료>병원,의원"
  },
  {
    "id": "JDQ4MTg4MSM1MSMkMiMkNCMkMDAkMzgxMTkxIzIxIyQxIyQ5IyQ5OSQzNjE0ODEjODEjJDEjJDIjJDgz",
    "name": "강북삼성의원",
    "addr": "서울특별시 강북구 삼양로77가길 9, 3층 (수유동)",
    "tel": "02-980-8767",
    "lat": 37.629555,
    "lng": 127.0170601,
    "gu": "강북구",
    "dong": "수유동",
    "estbDd": "19981212",
    "homepage": "http://www.kangbsclinic.com/",
    "category": "병원,의원>내과"
  },
  {
    "id": "JDQ4MTg4MSM1MSMkMiMkNCMkMDAkNDgxOTYxIzExIyQxIyQ3IyQ4MiQyNjE0ODEjNDEjJDEjJDgjJDgz",
    "name": "강북삼성의원",
    "addr": "서울특별시 성북구 화랑로40길 54, 지상3,4층 (석관동, 영원빌딩)",
    "tel": "02-965-6900",
    "lat": 37.6134502,
    "lng": 127.06449,
    "gu": "성북구",
    "dong": "석관동",
    "estbDd": "20130927"
  },
  {
    "id": "JDQ4MTg4MSM1MSMkMiMkNCMkMDAkMzgxOTYxIzIxIyQxIyQxIyQ5OSQyNjEyMjIjNTEjJDEjJDYjJDgz",
    "name": "강북서울의원",
    "addr": "서울특별시 강북구 월계로7나길 8, (미아동)",
    "tel": "02-988-8275",
    "lat": 37.6127721,
    "lng": 127.033492,
    "gu": "강북구",
    "dong": "미아동",
    "estbDd": "20030719"
  },
  {
    "id": "JDQ4MTg4MSM1MSMkMiMkNCMkMDAkMzgxMzUxIzMxIyQxIyQzIyQ2MiQyNjEwMDIjNTEjJDEjJDYjJDgz",
    "name": "강북이지함피부과의원",
    "addr": "서울특별시 노원구 노해로 457, 은성빌딩 2층 (상계동)",
    "tel": "939-4700",
    "lat": 37.654186,
    "lng": 127.0587803,
    "gu": "노원구",
    "dong": "상계동",
    "estbDd": "20020904",
    "homepage": "http://kb.ljh.co.kr/",
    "category": "병원,의원>피부과"
  },
  {
    "id": "JDQ4MTg4MSM1MSMkMiMkOCMkMDAkMzgxMTkxIzIxIyQxIyQ5IyQ5MiQzNjE0ODEjODEjJDEjJDIjJDgz",
    "name": "강서365의원",
    "addr": "서울특별시 강서구 화곡로 110, 3층 (화곡동)",
    "tel": "02-2606-6646",
    "lat": 37.5396802,
    "lng": 126.8341797,
    "gu": "강서구",
    "dong": "화곡동",
    "estbDd": "20220117"
  },
  {
    "id": "JDQ4MTg4MSM1MSMkMiMkMCMkMDAkMzgxMTkxIzUxIyQxIyQxIyQ3MiQzNjE4MzIjNjEjJDEjJDgjJDgz",
    "name": "강서동남의원",
    "addr": "서울특별시 양천구 남부순환로 360, (신월동)",
    "tel": "02-2694-1890",
    "lat": 37.5349085,
    "lng": 126.8286075,
    "gu": "양천구",
    "dong": "신월동",
    "estbDd": "19940503"
  },
  {
    "id": "JDQ4MTg4MSM1MSMkMiMkNCMkMDAkNTgxOTYxIzUxIyQxIyQxIyQ4OSQyNjE0ODEjNDEjJDEjJDgjJDgz",
    "name": "강서아이엠유의원",
    "addr": "서울특별시 강서구 마곡중앙로 55, 문영 퀸즈파크13 3층 303~307, 314호 (마곡동)",
    "tel": "02-2661-1190",
    "lat": 37.5586164,
    "lng": 126.8262615,
    "gu": "강서구",
    "dong": "마곡동",
    "estbDd": "20210210",
    "homepage": "http://www.imuclinic.co.kr",
    "category": "병원,의원>가정의학과"
  },
  {
    "id": "JDQ4MTg4MSM1MSMkMiMkMCMkMDAkNDgxNzAyIzUxIyQxIyQxIyQ4OSQ0NjEwMDIjNDEjJDEjJDgjJDgz",
    "name": "강서중앙의원",
    "addr": "서울특별시 강서구 강서로18가길 4, (화곡동)",
    "tel": "02-2693-0537",
    "lat": 37.5341192,
    "lng": 126.8470697,
    "gu": "강서구",
    "dong": "화곡동",
    "estbDd": "19971028"
  },
  {
    "id": "JDQ4MTg4MSM1MSMkMiMkOCMkMDAkMzgxOTYxIzIxIyQxIyQ5IyQ4MiQzNjE0ODEjNjEjJDEjJDQjJDgz",
    "name": "강서톡스앤필의원",
    "addr": "서울특별시 강서구 공항대로 190, 푸리마타워 2층 201~207호 (마곡동)",
    "tel": "02-6958-8688",
    "lat": 37.5590423,
    "lng": 126.8286371,
    "gu": "강서구",
    "dong": "마곡동",
    "estbDd": "20240410",
    "homepage": "http://www.toxnfill32.com/",
    "category": "병원,의원>피부과"
  },
  {
    "id": "JDQ4MTg4MSM1MSMkMiMkNCMkMDAkNDgxOTYxIzMxIyQxIyQ3IyQ5OSQyNjE0ODEjNjEjJDEjJDAjJDgz",
    "name": "강태욱피부과의원",
    "addr": "서울특별시 성동구 행당로 84, 302호 (행당동, 한진종합상가)",
    "tel": "02-2291-9500",
    "lat": 37.5566034,
    "lng": 127.0288249,
    "gu": "성동구",
    "dong": "행당동",
    "estbDd": "20120201",
    "homepage": "http://ktwskin.co.kr/",
    "category": "병원,의원>피부과"
  },
  {
    "id": "JDQ4MTg4MSM1MSMkMiMkNCMkMDAkMzgxMTkxIzQxIyQxIyQ3IyQ4OSQ0NjE0ODEjNTEjJDEjJDIjJDgz",
    "name": "강피부과의원",
    "addr": "서울특별시 금천구 시흥대로 228, 2층 (시흥동)",
    "tel": "02-893-8546",
    "lat": 37.4542348,
    "lng": 126.9012249,
    "gu": "금천구",
    "dong": "시흥동",
    "estbDd": "19920429"
  },
  {
    "id": "JDQ4MTg4MSM1MSMkMiMkNCMkMDAkMzgxNzAyIzUxIyQxIyQxIyQ4OSQyNjEwMDIjNzEjJDEjJDgjJDgz",
    "name": "강피부과의원",
    "addr": "서울특별시 성북구 동소문로20가길 56, 2층 (동선동1가, 명기빌딩)",
    "tel": "02-3443-1010",
    "lat": 37.5937434,
    "lng": 127.0191834,
    "gu": "성북구",
    "dong": "동선동1가",
    "estbDd": "20131121",
    "homepage": "https://blog.naver.com/nanaskin",
    "category": "병원,의원>피부과"
  },
  {
    "id": "JDQ4MTg4MSM1MSMkMiMkNCMkMDAkNTgxOTYxIzIxIyQxIyQ5IyQ2MiQ0NjE0ODEjNTEjJDEjJDYjJDgz",
    "name": "강한미(美)의원",
    "addr": "서울특별시 관악구 신림로 339, (신림동)",
    "tel": "02-872-9007",
    "lat": 37.4845635,
    "lng": 126.9292348,
    "gu": "관악구",
    "dong": "신림동",
    "estbDd": "20020401"
  },
  {
    "id": "JDQ4MTg4MSM1MSMkMiMkMCMkMDAkMzgxNzAyIzExIyQxIyQ3IyQxMyQ0NjEwMDIjNTEjJDEjJDIjJDgz",
    "name": "강한피부과의원",
    "addr": "서울특별시 서초구 서초대로 304, 8~11층 (서초동, 강한미크리닉빌딩)",
    "tel": "02-567-4962",
    "lat": 37.4938049,
    "lng": 127.0149613,
    "gu": "서초구",
    "dong": "서초동",
    "estbDd": "20010507",
    "homepage": "http://www.kangskin.co.kr/",
    "category": "병원,의원>피부과"
  },
  {
    "id": "JDQ4MTg4MSM1MSMkMiMkNCMkMDAkNTgxOTYxIzIxIyQyIyQ1IyQwMCQzNjE0ODEjNzEjJDEjJDgjJDgz",
    "name": "갤러리아피부과의원",
    "addr": "서울특별시 서초구 잠원로4길 33-2, 잠원동 스타빌딩 203호 일부 및 204,205호 (잠원동)",
    "tel": "02-592-1240",
    "lat": 37.512821,
    "lng": 127.0106673,
    "gu": "서초구",
    "dong": "잠원동",
    "estbDd": "20200214",
    "homepage": "https://galleriaskin.com/",
    "category": "병원,의원>피부과"
  },
  {
    "id": "JDQ4MTg4MSM1MSMkMiMkOCMkMDAkMzgxMzUxIzUxIyQxIyQ1IyQwMyQ0NjE0ODEjODEjJDEjJDYjJDgz",
    "name": "갤러리아피부과의원",
    "addr": "서울특별시 강남구 선릉로 34, 3층, 지하2층 (개포동)",
    "tel": "02-573-9839",
    "lat": 37.4828398,
    "lng": 127.060745,
    "gu": "강남구",
    "dong": "개포동",
    "estbDd": "20230428",
    "homepage": "http://galleriaskin3.com/",
    "category": "병원,의원>피부과"
  },
  {
    "id": "JDQ4MTg4MSM1MSMkMiMkOCMkMDAkMzgxOTYxIzMxIyQyIyQ3IyQwMCQzNjEyMjIjNTEjJDEjJDIjJDgz",
    "name": "갤러리아피부과의원",
    "addr": "서울특별시 성북구 길음로 11, 근린생활시설동 2층 206,207,212호 (길음동, 길음역롯데캐슬트윈골드아파트)",
    "tel": "02-941-2313",
    "lat": 37.6038013,
    "lng": 127.0234729,
    "gu": "성북구",
    "dong": "길음동",
    "estbDd": "20240709",
    "homepage": "http://pf.kakao.com/_SmycG",
    "category": "병원,의원>피부과"
  },
  {
    "id": "JDQ4MTg4MSM1MSMkMiMkOCMkMDAkMzgxMTkxIzExIyQxIyQzIyQwMyQzNjE4MzIjNjEjJDEjJDAjJDgz",
    "name": "갤러리아피부과의원",
    "addr": "서울특별시 강동구 양재대로 1360, 포레온스테이션5 3층 (둔촌동)",
    "tel": "02-6213-1000",
    "lat": 37.5274745,
    "lng": 127.1370449,
    "gu": "강동구",
    "dong": "둔촌동",
    "estbDd": "20250324",
    "homepage": "https://www.galleriaskings.com/",
    "category": "병원,의원>피부과"
  },
  {
    "id": "JDQ4MTg4MSM1MSMkMiMkNCMkMDAkNDgxMTkxIzUxIyQxIyQxIyQ4MiQyNjEyMjIjODEjJDEjJDIjJDgz",
    "name": "갤러리의원",
    "addr": "서울특별시 강남구 선릉로 427, 4층 (역삼동)",
    "tel": "553-7975",
    "lat": 37.5030852,
    "lng": 127.0493841,
    "gu": "강남구",
    "dong": "역삼동",
    "estbDd": "20141231",
    "homepage": "https://blog.naver.com/gallery7975",
    "category": "병원,의원>피부과"
  },
  {
    "id": "JDQ4MTg4MSM1MSMkMiMkNCMkMDAkNDgxMTkxIzUxIyQxIyQ1IyQ4MiQyNjE4MzIjNTEjJDEjJDIjJDgz",
    "name": "건강드림의원",
    "addr": "서울특별시 은평구 진관4로 77, 702동 114호,113호 (진관동, 상림마을)",
    "tel": "02-382-5575",
    "lat": 37.6470955,
    "lng": 126.9275219,
    "gu": "은평구",
    "dong": "진관동",
    "estbDd": "20150312"
  },
  {
    "id": "JDQ4MTg4MSM1MSMkMiMkNCMkMDAkMzgxOTYxIzIxIyQxIyQ1IyQwMyQzNjEwMDIjODEjJDEjJDIjJDgz",
    "name": "건강세상의원",
    "addr": "서울특별시 구로구 구로동로 77, 동해빌딩 1,2,3층 (구로동)",
    "tel": "02-3281-8285",
    "lat": 37.4855574,
    "lng": 126.8855797,
    "gu": "구로구",
    "dong": "구로동",
    "estbDd": "20031205",
    "homepage": "http://www.geonsei.co.kr/",
    "category": "병원,의원>내과"
  },
  {
    "id": "JDQ4MTg4MSM1MSMkMiMkMCMkMDAkNDgxNzAyIzIxIyQxIyQxIyQ3MiQ0NjEwMDIjNDEjJDEjJDgjJDgz",
    "name": "건강한성심의원",
    "addr": "서울특별시 중랑구 용마산로 503, 2~5층 (망우동)",
    "tel": "02-437-6152",
    "lat": 37.5961123,
    "lng": 127.0999453,
    "gu": "중랑구",
    "dong": "망우동",
    "estbDd": "20080801"
  },
  {
    "id": "JDQ4MTg4MSM1MSMkMiMkOCMkMDAkMzgxMTkxIzIxIyQxIyQ1IyQ5OSQzNjEwMDIjNTEjJDEjJDYjJDgz",
    "name": "건대닥터에버스의원",
    "addr": "서울특별시 광진구 능동로 87, 203~209-1호 (자양동)",
    "tel": "02-6952-7131",
    "lat": 37.5391459,
    "lng": 127.0696551,
    "gu": "광진구",
    "dong": "자양동",
    "estbDd": "20250813",
    "homepage": "https://evers25.co.kr/",
    "category": "병원,의원>피부과"
  },
  {
    "id": "JDQ4MTg4MSM1MSMkMiMkNCMkMDAkNTgxMzUxIzQxIyQxIyQ3IyQ3MiQyNjE0ODEjODEjJDEjJDYjJDgz",
    "name": "건대예쁨주의쁨의원",
    "addr": "서울특별시 광진구 아차산로 229, 한림타워 2층 (화양동)",
    "tel": "02-467-1177",
    "lat": 37.5408305,
    "lng": 127.0690816,
    "gu": "광진구",
    "dong": "화양동",
    "estbDd": "20181204",
    "homepage": "https://konkukuniv.ppeum.com/",
    "category": "병원,의원>피부과"
  },
  {
    "id": "JDQ4MTg4MSM1MSMkMiMkOCMkMDAkMzgxOTYxIzMxIyQxIyQ3IyQ2MiQzNjE4MzIjODEjJDEjJDIjJDgz",
    "name": "건대톡스앤필의원",
    "addr": "서울특별시 광진구 아차산로 237, 삼진빌딩 3, 5층 (화양동)",
    "tel": "02-6235-1567",
    "lat": 37.5405026,
    "lng": 127.0697556,
    "gu": "광진구",
    "dong": "화양동",
    "estbDd": "20191023",
    "homepage": "http://www.toxnfill6.com/",
    "category": "병원,의원>피부과"
  },
  {
    "id": "JDQ4MTg4MSM1MSMkMiMkNCMkMDAkNDgxMTkxIzExIyQxIyQ3IyQwMyQ0NjE0ODEjNzEjJDEjJDgjJDgz",
    "name": "경희큰나무의원",
    "addr": "서울특별시 강동구 올림픽로98길 57, 2층 (암사동)",
    "tel": "02-470-8080",
    "lat": 37.5495637,
    "lng": 127.1299424,
    "gu": "강동구",
    "dong": "암사동",
    "estbDd": "20130507"
  },
  {
    "id": "JDQ4MTg4MSM1MSMkMiMkNCMkMDAkNTgxOTYxIzIxIyQxIyQxIyQ5MiQzNjE4MzIjNjEjJDEjJDAjJDgz",
    "name": "계피부과의원",
    "addr": "서울특별시 영등포구 영중로 68, (영등포동5가)",
    "tel": "02-2634-0109",
    "lat": 37.5223812,
    "lng": 126.9054945,
    "gu": "영등포구",
    "dong": "영등포동5가",
    "estbDd": "19810729",
    "homepage": "http://www.kye.net/",
    "category": "병원,의원>피부과"
  },
  {
    "id": "JDQ4MTg4MSM1MSMkMiMkNCMkMDAkNTgxOTYxIzQxIyQxIyQ3IyQ4MiQyNjE4MzIjNjEjJDEjJDgjJDgz",
    "name": "계피부과의원",
    "addr": "서울특별시 강서구 공항대로 271, 이천이프라자 3층 301,302호 (마곡동)",
    "tel": "02-6956-2713",
    "lat": 37.5589464,
    "lng": 126.8378241,
    "gu": "강서구",
    "dong": "마곡동",
    "estbDd": "20210111",
    "homepage": "https://blog.naver.com/kye-skin",
    "category": "병원,의원>피부과"
  },
  {
    "id": "JDQ4MTg4MSM1MSMkMiMkOCMkMDAkMzgxMTkxIzExIyQxIyQ3IyQ3OSQ0NjEwMDIjODEjJDEjJDYjJDgz",
    "name": "고덕메이퓨어의원",
    "addr": "서울특별시 강동구 동남로73길 26, 고덕복합빌딩 315, 316호 (명일동, 고덕복합빌딩)",
    "tel": "",
    "lat": 37.5533037,
    "lng": 127.1547967,
    "gu": "강동구",
    "dong": "명일동",
    "estbDd": "20250411",
    "homepage": "https://blog.naver.com/maypuregoduk",
    "category": "병원,의원>피부과"
  },
  {
    "id": "JDQ4MTg4MSM1MSMkMiMkMCMkMDAkNDgxNzAyIzQxIyQxIyQ3IyQ2MiQyNjEwMDIjNDEjJDEjJDgjJDgz",
    "name": "고려의원",
    "addr": "서울특별시 노원구 상계로 309-1, 명륜빌딩 (상계동)",
    "tel": "02-3391-7215",
    "lat": 37.6708593,
    "lng": 127.0800083,
    "gu": "노원구",
    "dong": "상계동",
    "estbDd": "19970701"
  },
  {
    "id": "JDQ4MTg4MSM1MSMkMiMkNCMkMDAkNDgxOTYxIzUxIyQxIyQxIyQ2MiQyNjEwMDIjNDEjJDEjJDQjJDgz",
    "name": "고려중앙의원",
    "addr": "서울특별시 중랑구 신내로21길 6, 신내두산아파트 상가동 208, 210, 211-1호 (묵동)",
    "tel": "434-4556",
    "lat": 37.6174067,
    "lng": 127.0901344,
    "gu": "중랑구",
    "dong": "묵동",
    "estbDd": "20120730"
  },
  {
    "id": "JDQ4MTg4MSM1MSMkMiMkOCMkMDAkMzgxMTkxIzMxIyQxIyQ3IyQ4OSQzNjE4MzIjNDEjJDEjJDgjJDgz",
    "name": "고와의원",
    "addr": "서울특별시 서초구 사평대로 368, 듀오 신논현빌딩 12층 (서초동)",
    "tel": "02-591-7776",
    "lat": 37.5037924,
    "lng": 127.0235428,
    "gu": "서초구",
    "dong": "서초동",
    "estbDd": "20260220",
    "homepage": "https://gowaclinic.com/",
    "category": "병원,의원>피부과"
  },
  {
    "id": "JDQ4MTg4MSM1MSMkMiMkNCMkMDAkMzgxMzUxIzMxIyQxIyQ3IyQ3OSQ0NjEwMDIjNjEjJDEjJDgjJDgz",
    "name": "고우석제이엠오피부과의원",
    "addr": "서울특별시 강남구 도산대로 104, 1st Avenue 지하1층 (논현동)",
    "tel": "02-3445-3456",
    "lat": 37.5160775,
    "lng": 127.0203412,
    "gu": "강남구",
    "dong": "논현동",
    "estbDd": "20111031",
    "homepage": "http://www.e-jemo.co.kr/",
    "category": "병원,의원>피부과"
  },
  {
    "id": "JDQ4MTg4MSM1MSMkMiMkMCMkMDAkNDgxMTkxIzExIyQyIyQ3IyQwMCQyNjE0ODEjNDEjJDEjJDgjJDgz",
    "name": "고운누리피부과의원",
    "addr": "서울특별시 서대문구 응암로 54, 서부프라자빌딩 3층 301호 (북가좌동)",
    "tel": "02-303-0297",
    "lat": 37.5778964,
    "lng": 126.9102202,
    "gu": "서대문구",
    "dong": "북가좌동",
    "estbDd": "19920424"
  },
  {
    "id": "JDQ4MTg4MSM1MSMkMiMkNCMkMDAkMzgxNzAyIzMxIyQxIyQ3IyQ4MiQyNjE0ODEjNTEjJDEjJDIjJDgz",
    "name": "고운몸의원",
    "addr": "서울특별시 서초구 강남대로 321, 205,206,207호 (서초동, 서초동대우디오빌프라임)",
    "tel": "02-525-0304",
    "lat": 37.4915748,
    "lng": 127.0299815,
    "gu": "서초구",
    "dong": "서초동",
    "estbDd": "20060721",
    "homepage": "https://blog.naver.com/gowoondrkim",
    "category": "병원,의원>성형외과"
  },
  {
    "id": "JDQ4MTg4MSM1MSMkMiMkNCMkMDAkNDgxOTYxIzExIyQxIyQzIyQ5OSQ0NjEwMDIjNDEjJDEjJDQjJDgz",
    "name": "고운미의원",
    "addr": "서울특별시 동작구 동작대로 121, 2층 (사당동, 경원빌딩)",
    "tel": "02-3482-8875",
    "lat": 37.4874684,
    "lng": 126.9818694,
    "gu": "동작구",
    "dong": "사당동",
    "estbDd": "20090504",
    "homepage": "http://www.gounmiclinic.co.kr/",
    "category": "병원,의원>피부과"
  },
  {
    "id": "JDQ4MTg4MSM1MSMkMiMkOCMkMDAkMzgxMTkxIzIxIyQxIyQ5IyQ5OSQyNjEyMjIjNjEjJDEjJDQjJDgz",
    "name": "고운채로의원",
    "addr": "서울특별시 관악구 은천로 118, 센트럴힐즈 5층 501,504호 (봉천동)",
    "tel": "0507-1303-7255",
    "lat": 37.4865494,
    "lng": 126.9484411,
    "gu": "관악구",
    "dong": "봉천동",
    "estbDd": "20251022",
    "homepage": "https://pf.kakao.com/_bxaxecn",
    "category": "병원,의원>피부과"
  },
  {
    "id": "JDQ4MTg4MSM1MSMkMiMkNCMkMDAkNDgxMTkxIzUxIyQxIyQxIyQxMyQzNjEyMjIjNTEjJDEjJDIjJDgz",
    "name": "고움의원",
    "addr": "서울특별시 노원구 노해로 501, 201호,203호 (상계동, 노원빌딩)",
    "tel": "931-7747",
    "lat": 37.655226,
    "lng": 127.0635339,
    "gu": "노원구",
    "dong": "상계동",
    "estbDd": "20150122",
    "homepage": "http://goumclinic.co.kr",
    "category": "병원,의원>피부과"
  },
  {
    "id": "JDQ4MTg4MSM1MSMkMiMkOCMkMDAkMzgxOTYxIzUxIyQxIyQxIyQ4OSQyNjEyMjIjODEjJDEjJDIjJDgz",
    "name": "고은나라의원",
    "addr": "서울특별시 금천구 시흥대로 214, 6층 (시흥동, 비즈메드)",
    "tel": "803-8051",
    "lat": 37.4530528,
    "lng": 126.9016824,
    "gu": "금천구",
    "dong": "시흥동",
    "estbDd": "20020523"
  },
  {
    "id": "JDQ4MTg4MSM1MSMkMiMkMCMkMDAkMzgxMzUxIzUxIyQxIyQxIyQ4MiQ0NjE0ODEjNDEjJDEjJDgjJDgz",
    "name": "고은미인의원",
    "addr": "서울특별시 관악구 남부순환로 1860, 2층 (봉천동)",
    "tel": "02-591-6550",
    "lat": 37.4796227,
    "lng": 126.9562934,
    "gu": "관악구",
    "dong": "봉천동",
    "estbDd": "20111214",
    "homepage": "http://www.goeunmiin.co.kr/",
    "category": "병원,의원>피부과"
  },
  {
    "id": "JDQ4MTg4MSM1MSMkMiMkNCMkMDAkNDgxMzUxIzMxIyQxIyQ3IyQxMyQzNjE0ODEjNTEjJDEjJDIjJDgz",
    "name": "고은미즈의원",
    "addr": "서울특별시 노원구 동일로 1553, (상계동)",
    "tel": "02-3392-3338",
    "lat": 37.6670869,
    "lng": 127.056813,
    "gu": "노원구",
    "dong": "상계동",
    "estbDd": "20100308",
    "homepage": "http://www.gomiz.co.kr/",
    "category": "병원,의원>피부과"
  },
  {
    "id": "JDQ4MTg4MSM1MSMkMiMkNCMkMDAkNTgxMzUxIzExIyQyIyQzIyQwMCQ0NjEwMDIjNTEjJDEjJDYjJDgz",
    "name": "고정아의원",
    "addr": "서울특별시 강남구 도산대로 134, 11층 (논현동, 페이토빌딩)",
    "tel": "",
    "lat": 37.5173572,
    "lng": 127.0234091,
    "gu": "강남구",
    "dong": "논현동",
    "estbDd": "20170511",
    "homepage": "http://kojungaclinic.co.kr/",
    "category": "병원,의원>피부과"
  },
  {
    "id": "JDQ4MTg4MSM1MSMkMiMkMCMkMDAkNDgxNzAyIzQxIyQxIyQ3IyQ3OSQyNjE4MzIjODEjJDEjJDIjJDgz",
    "name": "고척성모의원",
    "addr": "서울특별시 구로구 중앙로15길 29, (고척동)",
    "tel": "02-2684-3137",
    "lat": 37.5063449,
    "lng": 126.8581742,
    "gu": "구로구",
    "dong": "고척동",
    "estbDd": "19990811"
  },
  {
    "id": "JDQ4MTg4MSM1MSMkMiMkNCMkMDAkMzgxNzAyIzIxIyQyIyQ1IyQwMCQzNjE0ODEjNjEjJDEjJDAjJDgz",
    "name": "고트의원",
    "addr": "서울특별시 서초구 강남대로 375, 602~610호 (서초동, 서초현대타워아파트)",
    "tel": "02-523-3222",
    "lat": 37.4963943,
    "lng": 127.0278783,
    "gu": "서초구",
    "dong": "서초동",
    "estbDd": "20020618",
    "homepage": "https://www.goatclinic.co.kr/",
    "category": "병원,의원>피부과"
  },
  {
    "id": "JDQ4MTg4MSM1MSMkMiMkMCMkMDAkNDgxOTYxIzMxIyQxIyQ3IyQ2MiQyNjEyMjIjNDEjJDEjJDgjJDgz",
    "name": "고피부과의원",
    "addr": "서울특별시 송파구 동남로 211, 3층 (가락동, 영남빌딩)",
    "tel": "02-406-8521",
    "lat": 37.4963557,
    "lng": 127.1312615,
    "gu": "송파구",
    "dong": "가락동",
    "estbDd": "19910307"
  },
  {
    "id": "JDQ4MTg4MSM1MSMkMiMkOCMkMDAkMzgxMzUxIzIxIyQxIyQ1IyQwMyQyNjE0ODEjNjEjJDEjJDQjJDgz",
    "name": "골드제이의원",
    "addr": "서울특별시 강남구 테헤란로 408, 대치빌딩 6층 6호 (대치동)",
    "tel": "02-501-7715",
    "lat": 37.5044651,
    "lng": 127.0504171,
    "gu": "강남구",
    "dong": "대치동",
    "estbDd": "20220311",
    "homepage": "https://goldjclinic.com/",
    "category": "병원,의원>피부과"
  },
  {
    "id": "JDQ4MTg4MSM1MSMkMiMkNCMkMDAkNDgxMTkxIzIxIyQxIyQ5IyQxMyQzNjEyMjIjNzEjJDEjJDgjJDgz",
    "name": "골드지(G)의원",
    "addr": "서울특별시 서초구 사임당로 38, 3층 (서초동)",
    "tel": "02-585-1006",
    "lat": 37.4880847,
    "lng": 127.0142926,
    "gu": "서초구",
    "dong": "서초동",
    "estbDd": "20140213",
    "homepage": "http://goldg-ps.com/",
    "category": "병원,의원>성형외과"
  },
  {
    "id": "JDQ4MTg4MSM1MSMkMiMkNCMkMDAkNDgxMzUxIzIxIyQxIyQ1IyQ4OSQyNjEwMDIjNDEjJDEjJDgjJDgz",
    "name": "골드해피미래의원",
    "addr": "서울특별시 강남구 논현로 630, (논현동)",
    "tel": "02-553-5030",
    "lat": 37.5098536,
    "lng": 127.0323957,
    "gu": "강남구",
    "dong": "논현동",
    "estbDd": "20000121"
  },
  {
    "id": "JDQ4MTg4MSM1MSMkMiMkNCMkMDAkNTgxOTYxIzMxIyQyIyQzIyQwMCQyNjEwMDIjNjEjJDEjJDQjJDgz",
    "name": "골든발란스의원",
    "addr": "서울특별시 강남구 강남대로 468, 충림빌딩 7,12층 (역삼동)",
    "tel": "02-516-7148",
    "lat": 37.5041598,
    "lng": 127.0251636,
    "gu": "강남구",
    "dong": "역삼동",
    "estbDd": "20200618",
    "homepage": "https://goldenbalance-seoul.imweb.me",
    "category": "병원,의원>산부인과"
  },
  {
    "id": "JDQ4MTg4MSM1MSMkMiMkNCMkMDAkNDgxNzAyIzIxIyQxIyQ5IyQwMyQ0NjE0ODEjNDEjJDEjJDgjJDgz",
    "name": "공덕닥터에버스의원",
    "addr": "서울특별시 마포구 도화길 43, 나눔빌딩 3층 303,304,309,310호 (도화동)",
    "tel": "02-711-1606",
    "lat": 37.5417888,
    "lng": 126.9502543,
    "gu": "마포구",
    "dong": "도화동",
    "estbDd": "20240719",
    "homepage": "https://evers16.co.kr/",
    "category": "병원,의원>피부과"
  },
  {
    "id": "JDQ4MTg4MSM1MSMkMiMkOCMkMDAkMzgxMTkxIzMxIyQxIyQzIyQ3MiQ0NjE0ODEjNTEjJDEjJDIjJDgz",
    "name": "공덕멜로우피부과의원",
    "addr": "서울특별시 마포구 만리재로 22, 2층 206호, 207호, 208호, 209호, 210호 (신공덕동)",
    "tel": "02-716-1368",
    "lat": 37.5440733,
    "lng": 126.9535265,
    "gu": "마포구",
    "dong": "신공덕동",
    "estbDd": "20260202",
    "homepage": "https://doctormellow-gd.com/",
    "category": "병원,의원>피부과"
  },
  {
    "id": "JDQ4MTg4MSM1MSMkMiMkNCMkMDAkNDgxNzAyIzUxIyQxIyQxIyQ3MiQyNjE0ODEjNDEjJDEjJDQjJDgz",
    "name": "공릉의원",
    "addr": "서울특별시 노원구 공릉로 147, 2층 (공릉동, 기업은행 공릉동지점)",
    "tel": "02-974-2588",
    "lat": 37.623149,
    "lng": 127.07908,
    "gu": "노원구",
    "dong": "공릉동",
    "estbDd": "20161201"
  },
  {
    "id": "JDQ4MTg4MSM1MSMkMiMkMCMkMDAkNDgxNzAyIzQxIyQxIyQ3IyQ3OSQzNjEyMjIjNTEjJDEjJDIjJDgz",
    "name": "곽승민의원",
    "addr": "서울특별시 구로구 구로동로 135, 4층일부(구로동, 남부빌딩) (구로동)",
    "tel": "02-2676-1238",
    "lat": 37.4906462,
    "lng": 126.8836781,
    "gu": "구로구",
    "dong": "구로동",
    "estbDd": "19970508",
    "homepage": "https://blog.naver.com/drkwak_clinic",
    "category": "병원,의원>피부과"
  },
  {
    "id": "JDQ4MTg4MSM1MSMkMiMkMCMkMDAkNDgxOTYxIzExIyQxIyQzIyQ3MiQyNjEyMjIjNDEjJDEjJDgjJDgz",
    "name": "곽피부과의원",
    "addr": "서울특별시 동작구 노량진로 162, (노량진동)",
    "tel": "02-826-1088",
    "lat": 37.5134041,
    "lng": 126.9439606,
    "gu": "동작구",
    "dong": "노량진동",
    "estbDd": "19930601"
  },
  {
    "id": "JDQ4MTg4MSM1MSMkMiMkMCMkMDAkNDgxNzAyIzQxIyQyIyQ3IyQwMCQyNjEwMDIjNTEjJDEjJDYjJDgz",
    "name": "관악성모의원",
    "addr": "서울특별시 관악구 쑥고개로 51-1, (봉천동)",
    "tel": "02-889-5353",
    "lat": 37.4797977,
    "lng": 126.9422959,
    "gu": "관악구",
    "dong": "봉천동",
    "estbDd": "19970607"
  },
  {
    "id": "JDQ4MTg4MSM1MSMkMiMkNCMkMDAkNDgxMzUxIzExIyQxIyQ3IyQ2MiQzNjEwMDIjNTEjJDEjJDIjJDgz",
    "name": "관악오라클피부과의원",
    "addr": "서울특별시 관악구 관악로 217, 5층 (봉천동, 동진빌딩)",
    "tel": "02-871-8301",
    "lat": 37.4843807,
    "lng": 126.9546314,
    "gu": "관악구",
    "dong": "봉천동",
    "estbDd": "20090211",
    "homepage": "http://www.oracleclinic.com/new/doc/net_main.php?netId=6&NVKWD",
    "category": "병원,의원>피부과"
  },
  {
    "id": "JDQ4MTg4MSM1MSMkMiMkNCMkMDAkNDgxMzUxIzIxIyQxIyQxIyQ5MiQyNjEwMDIjODEjJDEjJDIjJDgz",
    "name": "관악우태하피부과의원",
    "addr": "서울특별시 관악구 관악로 168, 405,406호 (봉천동, 디오슈페리움2단지)",
    "tel": "02-875-1675",
    "lat": 37.4801769,
    "lng": 126.9530995,
    "gu": "관악구",
    "dong": "봉천동",
    "estbDd": "20090427"
  },
  {
    "id": "JDQ4MTg4MSM1MSMkMiMkNCMkMDAkNTgxOTYxIzQxIyQxIyQ3IyQ4MiQyNjEwMDIjNDEjJDEjJDQjJDgz",
    "name": "관악정다운의료복지사회적협동조합정다운우리의원",
    "addr": "서울특별시 관악구 신림로 206, 태영빌딩 2층 (신림동)",
    "tel": "02-871-2497",
    "lat": 37.4756348,
    "lng": 126.9374624,
    "gu": "관악구",
    "dong": "신림동",
    "estbDd": "20030822",
    "homepage": "https://blog.naver.com/jungmc2020",
    "category": "병원,의원>가정의학과"
  },
  {
    "id": "JDQ4MTg4MSM1MSMkMiMkMCMkMDAkNDgxNzAyIzMxIyQxIyQ3IyQwMyQzNjEwMDIjNjEjJDEjJDgjJDgz",
    "name": "광재의원",
    "addr": "서울특별시 은평구 응암로 226-1, 1,2층 (응암동)",
    "tel": "02-309-2184",
    "lat": 37.5921756,
    "lng": 126.9179426,
    "gu": "은평구",
    "dong": "응암동",
    "estbDd": "19970425"
  },
  {
    "id": "JDQ4MTg4MSM1MSMkMiMkNCMkMDAkMzgxMTkxIzMxIyQxIyQzIyQ4MiQzNjEwMDIjNDEjJDEjJDgjJDgz",
    "name": "광지의원",
    "addr": "서울특별시 강남구 학동로97길 15, 1층 (청담동)",
    "tel": "02-546-6045",
    "lat": 37.5207277,
    "lng": 127.0553016,
    "gu": "강남구",
    "dong": "청담동",
    "estbDd": "20161006"
  },
  {
    "id": "JDQ4MTg4MSM1MSMkMiMkMCMkMDAkNTgxMzUxIzMxIyQxIyQzIyQwMyQyNjE0ODEjNjEjJDEjJDAjJDgz",
    "name": "광진성모셀인의원",
    "addr": "서울특별시 광진구 능동로 50, (자양동,이튼리버타워 2차 207호)",
    "tel": "466-0662",
    "lat": 37.5356631,
    "lng": 127.0693472,
    "gu": "광진구",
    "dong": "자양동",
    "estbDd": "19990821",
    "homepage": "https://seongmo1.medisay.co.kr/build/seongmo1/",
    "category": "병원,의원>정형외과"
  },
  {
    "id": "JDQ4MTg4MSM1MSMkMiMkNCMkMDAkNTgxOTYxIzUxIyQxIyQxIyQxMyQyNjE0ODEjNDEjJDEjJDQjJDgz",
    "name": "광피부과의원",
    "addr": "서울특별시 강남구 도산대로 318, SB타워 14층 3,4호 (논현동)",
    "tel": "02-566-2701",
    "lat": 37.521843,
    "lng": 127.0368945,
    "gu": "강남구",
    "dong": "논현동",
    "estbDd": "20240517",
    "homepage": "https://glowderm.kr/events",
    "category": "병원,의원>피부과"
  },
  {
    "id": "JDQ4MTg4MSM1MSMkMiMkOCMkMDAkMzgxOTYxIzExIyQxIyQ3IyQwMyQ0NjE0ODEjNTEjJDEjJDYjJDgz",
    "name": "광화문헤리티크피부과의원",
    "addr": "서울특별시 종로구 새문안로 91, 광화문 고려빌딩 2층 (신문로1가)",
    "tel": "02-733-2237",
    "lat": 37.5704971,
    "lng": 126.974762,
    "gu": "종로구",
    "dong": "신문로1가",
    "estbDd": "20230926",
    "homepage": "https://htqskin.com/",
    "category": "병원,의원>피부과"
  },
  {
    "id": "JDQ4MTg4MSM1MSMkMiMkOCMkMDAkMzgxMzUxIzUxIyQxIyQ1IyQ4OSQzNjEyMjIjNDEjJDEjJDgjJDgz",
    "name": "구도피부과의원",
    "addr": "서울특별시 용산구 독서당로 124, 3층 (한남동)",
    "tel": "02-749-5005",
    "lat": 37.5370074,
    "lng": 127.0127721,
    "gu": "용산구",
    "dong": "한남동",
    "estbDd": "20230224",
    "homepage": "https://kudo.kr/ko",
    "category": "병원,의원>피부과"
  },
  {
    "id": "JDQ4MTg4MSM1MSMkMiMkNCMkMDAkMzgxMzUxIzQxIyQxIyQ3IyQ5MiQ0NjE0ODEjNjEjJDEjJDQjJDgz",
    "name": "구로세란의원",
    "addr": "서울특별시 구로구 디지털로 227, 새안빌딩 3층 (가리봉동)",
    "tel": "02-839-8008",
    "lat": 37.480474,
    "lng": 126.8909287,
    "gu": "구로구",
    "dong": "가리봉동",
    "estbDd": "20030106"
  },
  {
    "id": "JDQ4MTg4MSM1MSMkMiMkMCMkMDAkNDgxMTkxIzUxIyQyIyQxIyQwMCQyNjE4MzIjNDEjJDEjJDgjJDgz",
    "name": "구로연세의원",
    "addr": "서울특별시 구로구 구로중앙로 16, 2,3층 (구로동)",
    "tel": "02-858-7776",
    "lat": 37.4918439,
    "lng": 126.8920599,
    "gu": "구로구",
    "dong": "구로동",
    "estbDd": "19940620"
  },
  {
    "id": "JDQ4MTg4MSM1MSMkMiMkNCMkMDAkNDgxMTkxIzExIyQxIyQ3IyQwMyQ0NjEwMDIjNjEjJDEjJDQjJDgz",
    "name": "구로우태하피부과의원",
    "addr": "서울특별시 구로구 남부순환로97길 3, KS프리미어빌딩 401호 (개봉동)",
    "tel": "02-2616-1675",
    "lat": 37.4940221,
    "lng": 126.8582496,
    "gu": "구로구",
    "dong": "개봉동",
    "estbDd": "20130513",
    "homepage": "http://www.wooskin7.co.kr/",
    "category": "병원,의원>피부과"
  },
  {
    "id": "JDQ4MTg4MSM1MSMkMiMkMCMkMDAkNTgxMzUxIzExIyQxIyQzIyQ2MiQyNjEwMDIjNDEjJDEjJDgjJDgz",
    "name": "구로의원",
    "addr": "서울특별시 구로구 구로동로 128, (구로동)",
    "tel": "02-865-0664",
    "lat": 37.4900965,
    "lng": 126.8843986,
    "gu": "구로구",
    "dong": "구로동",
    "estbDd": "19940407",
    "homepage": "https://blog.naver.com/udguro",
    "category": "병원,의원>치과"
  },
  {
    "id": "JDQ4MTg4MSM1MSMkMiMkNCMkMDAkMzgxOTYxIzIxIyQxIyQ5IyQ3MiQzNjEwMDIjNTEjJDEjJDIjJDgz",
    "name": "구로제일의원",
    "addr": "서울특별시 구로구 공원로8길 23, 2,3층 (구로동)",
    "tel": "02-855-1380",
    "lat": 37.5033587,
    "lng": 126.89056,
    "gu": "구로구",
    "dong": "구로동",
    "estbDd": "20220927",
    "homepage": "https://blog.naver.com/gurojeil_clinic",
    "category": "병원,의원>내과"
  },
  {
    "id": "JDQ4MTg4MSM1MSMkMiMkNCMkMDAkNDgxMzUxIzQxIyQxIyQ3IyQ4MiQyNjE0ODEjNjEjJDEjJDAjJDgz",
    "name": "구로튼튼의원",
    "addr": "서울특별시 구로구 도림로 67, (구로동,2층)",
    "tel": "02-3281-7417",
    "lat": 37.4895188,
    "lng": 126.8910281,
    "gu": "구로구",
    "dong": "구로동",
    "estbDd": "20100414"
  },
  {
    "id": "JDQ4MTg4MSM1MSMkMiMkNCMkMDAkNTgxMzUxIzExIyQxIyQ3IyQ3MiQ0NjEwMDIjNjEjJDEjJDAjJDgz",
    "name": "구름의자의원",
    "addr": "서울특별시 강남구 논현로 841, (신사동, 제이비 미소빌딩, 206호 일부)",
    "tel": "02-1544-6378",
    "lat": 37.5240297,
    "lng": 127.027762,
    "gu": "강남구",
    "dong": "신사동",
    "estbDd": "20170810"
  },
  {
    "id": "JDQ4MTg4MSM1MSMkMiMkOCMkMDAkMzgxOTYxIzExIyQyIyQ3IyQwMCQzNjE4MzIjODEjJDEjJDYjJDgz",
    "name": "구앤장마취통증의학과피부과의원",
    "addr": "서울특별시 관악구 남부순환로 1805, 에이스에이존 201호 (봉천동)",
    "tel": "02-882-0234",
    "lat": 37.4817866,
    "lng": 126.9508622,
    "gu": "관악구",
    "dong": "봉천동",
    "estbDd": "20230901",
    "homepage": "https://kncpain.com/",
    "category": "병원,의원>정형외과"
  },
  {
    "id": "JDQ4MTg4MSM1MSMkMiMkNCMkMDAkNTgxMzUxIzUxIyQxIyQ1IyQ4OSQzNjE4MzIjNDEjJDEjJDQjJDgz",
    "name": "구의중앙의원",
    "addr": "서울특별시 광진구 자양로 285, 2층 (구의동)",
    "tel": "02-458-7524",
    "lat": 37.5513157,
    "lng": 127.0916974,
    "gu": "광진구",
    "dong": "구의동",
    "estbDd": "20180308"
  },
  {
    "id": "JDQ4MTg4MSM1MSMkMiMkMCMkMDAkNTgxMzUxIzIxIyQxIyQ5IyQ2MiQyNjE4MzIjNTEjJDEjJDYjJDgz",
    "name": "구일가정의원",
    "addr": "서울특별시 구로구 구일로10길 49, (구로동, 다원그린빌)",
    "tel": "02-863-9188",
    "lat": 37.4957554,
    "lng": 126.8744137,
    "gu": "구로구",
    "dong": "구로동",
    "estbDd": "19990901"
  },
  {
    "id": "JDQ4MTg4MSM1MSMkMiMkNCMkMDAkNDgxMTkxIzUxIyQxIyQ1IyQ3OSQ0NjEwMDIjODEjJDEjJDIjJDgz",
    "name": "국방의원",
    "addr": "서울특별시 용산구 이태원로 22, (용산동3가)",
    "tel": "02-748-1171",
    "lat": 37.5336556,
    "lng": 126.9775913,
    "gu": "용산구",
    "dong": "용산동3가",
    "estbDd": "20150210"
  },
  {
    "id": "JDQ4MTg4MSM1MSMkMiMkNCMkMDAkNTgxMzUxIzUxIyQxIyQxIyQ2MiQyNjEyMjIjNjEjJDEjJDAjJDgz",
    "name": "국홍일국정표피부과의원",
    "addr": "서울특별시 서초구 강남대로 221, 양재역환승주차장 302호 (양재동)",
    "tel": "02-574-0901",
    "lat": 37.4836851,
    "lng": 127.0341178,
    "gu": "서초구",
    "dong": "양재동",
    "estbDd": "19960416",
    "homepage": "https://www.modoodoc.com/hospital/5036/국홍일국정표-피부과의원-서울-양재동",
    "category": "병원,의원>피부과"
  },
  {
    "id": "JDQ4MTg4MSM1MSMkMiMkMCMkMDAkNTgxMzUxIzIxIyQxIyQxIyQwMyQzNjE4MzIjNTEjJDEjJDIjJDgz",
    "name": "굿닥터의원",
    "addr": "서울특별시 양천구 곰달래로5길 37, 105호 (신월동, 태영아파트상가)",
    "tel": "2606-1119",
    "lat": 37.532952,
    "lng": 126.832429,
    "gu": "양천구",
    "dong": "신월동",
    "estbDd": "19990302",
    "homepage": "https://blog.naver.com/gooddoctorclinicgo",
    "category": "병원,의원>가정의학과"
  },
  {
    "id": "JDQ4MTg4MSM1MSMkMiMkNCMkMDAkMzgxOTYxIzExIyQxIyQzIyQ4MiQ0NjE0ODEjODEjJDEjJDYjJDgz",
    "name": "굿모닝의원",
    "addr": "서울특별시 구로구 개봉로3길 76, (개봉동)",
    "tel": "02-2066-7588",
    "lat": 37.4862558,
    "lng": 126.8520967,
    "gu": "구로구",
    "dong": "개봉동",
    "estbDd": "20150701",
    "homepage": "https://blog.naver.com/paulhahm",
    "category": "건강,의료>병원,의원"
  },
  {
    "id": "JDQ4MTg4MSM1MSMkMiMkNCMkMDAkMzgxMTkxIzIxIyQxIyQxIyQ5OSQzNjEwMDIjNTEjJDEjJDYjJDgz",
    "name": "굿모닝의원",
    "addr": "서울특별시 강남구 삼성로 212, (대치동, 은마상가 A블럭 212-1)",
    "tel": "02-561-7533",
    "lat": 37.4977415,
    "lng": 127.0650701,
    "gu": "강남구",
    "dong": "대치동",
    "estbDd": "20050228"
  },
  {
    "id": "JDQ4MTg4MSM1MSMkMiMkNCMkMDAkMzgxMTkxIzIxIyQxIyQ5IyQ4MiQyNjE4MzIjODEjJDEjJDYjJDgz",
    "name": "굿모닝의원",
    "addr": "서울특별시 강서구 공항대로45길 44, 청림오피스텔 301호 (등촌동)",
    "tel": "02-3663-3005",
    "lat": 37.5568048,
    "lng": 126.8558121,
    "gu": "강서구",
    "dong": "등촌동",
    "estbDd": "20060113"
  },
  {
    "id": "JDQ4MTg4MSM1MSMkMiMkNCMkMDAkMzgxMTkxIzMxIyQxIyQzIyQ4MiQ0NjE0ODEjNjEjJDEjJDgjJDgz",
    "name": "굿모닝의원",
    "addr": "서울특별시 양천구 목동중앙본로 113, 2층 (목동)",
    "tel": "02-6080-1316",
    "lat": 37.5456838,
    "lng": 126.8708505,
    "gu": "양천구",
    "dong": "목동",
    "estbDd": "20020831"
  },
  {
    "id": "JDQ4MTg4MSM1MSMkMiMkNCMkMDAkMzgxNzAyIzUxIyQxIyQxIyQ3OSQyNjEwMDIjNDEjJDEjJDQjJDgz",
    "name": "굿모닝의원",
    "addr": "서울특별시 송파구 마천로41길 20, (마천동, 2층)",
    "tel": "02-409-7576",
    "lat": 37.4969754,
    "lng": 127.1496485,
    "gu": "송파구",
    "dong": "마천동",
    "estbDd": "20090811",
    "homepage": "http://www.gm-slim.com/",
    "category": "병원,의원>피부과"
  },
  {
    "id": "JDQ4MTg4MSM1MSMkMiMkNCMkMDAkNDgxMzUxIzExIyQxIyQzIyQ3OSQyNjEwMDIjNjEjJDEjJDAjJDgz",
    "name": "굿모닝의원",
    "addr": "서울특별시 강동구 올림픽로 654, 삼영빌딩 3층 1호 (천호동)",
    "tel": "02-482-3112",
    "lat": 37.5398563,
    "lng": 127.12411,
    "gu": "강동구",
    "dong": "천호동",
    "estbDd": "20081007"
  },
  {
    "id": "JDQ4MTg4MSM1MSMkMiMkNCMkMDAkNTgxMzUxIzIxIyQxIyQ1IyQ5OSQzNjEyMjIjNDEjJDEjJDgjJDgz",
    "name": "굿모닝의원",
    "addr": "서울특별시 광진구 자양로9길 77, 4층 (자양동)",
    "tel": "02-456-1600",
    "lat": 37.5317812,
    "lng": 127.0812268,
    "gu": "광진구",
    "dong": "자양동",
    "estbDd": "20110308"
  },
  {
    "id": "JDQ4MTg4MSM1MSMkMiMkNCMkMDAkNDgxOTYxIzExIyQyIyQzIyQwMCQzNjEwMDIjNjEjJDEjJDAjJDgz",
    "name": "굿모닝플러스의원",
    "addr": "서울특별시 관악구 난곡로31길 5, 2층 (신림동, 성수빌딩)",
    "tel": "02-863-0122",
    "lat": 37.4712891,
    "lng": 126.9194912,
    "gu": "관악구",
    "dong": "신림동",
    "estbDd": "20101117"
  },
  {
    "id": "JDQ4MTg4MSM1MSMkMiMkNCMkMDAkMzgxNzAyIzQxIyQxIyQ3IyQ2MiQzNjEwMDIjNjEjJDEjJDQjJDgz",
    "name": "권오정리얼뷰티의원",
    "addr": "서울특별시 강남구 선릉로86길 12, 3층 (대치동)",
    "tel": "02-569-5757",
    "lat": 37.5031213,
    "lng": 127.0509054,
    "gu": "강남구",
    "dong": "대치동",
    "estbDd": "20171020",
    "homepage": "http://www.kojskin.com",
    "category": "병원,의원>피부과"
  },
  {
    "id": "JDQ4MTg4MSM1MSMkMiMkMCMkMDAkNDgxMzUxIzExIyQxIyQzIyQxMyQyNjEwMDIjNjEjJDEjJDgjJDgz",
    "name": "권피부과의원",
    "addr": "서울특별시 중랑구 겸재로 178, 2층 (면목동)",
    "tel": "02-493-7653",
    "lat": 37.5881313,
    "lng": 127.0872044,
    "gu": "중랑구",
    "dong": "면목동",
    "estbDd": "19860424"
  },
  {
    "id": "JDQ4MTg4MSM1MSMkMiMkNCMkMDAkNDgxMTkxIzIxIyQxIyQ1IyQ5OSQyNjEwMDIjODEjJDEjJDYjJDgz",
    "name": "권피부과의원",
    "addr": "서울특별시 구로구 구로중앙로 68, 313,314호 (구로동, 신안타워)",
    "tel": "02-856-0079",
    "lat": 37.4958015,
    "lng": 126.8887946,
    "gu": "구로구",
    "dong": "구로동",
    "estbDd": "20130906"
  },
  {
    "id": "JDQ4MTg4MSM1MSMkMiMkMCMkMDAkNDgxMzUxIzMxIyQyIyQzIyQwMCQzNjEyMjIjNjEjJDEjJDQjJDgz",
    "name": "규피부과의원",
    "addr": "서울특별시 강서구 양천로 556, 304호 (등촌동, 강서메디칼센터)",
    "tel": "02-2659-0293",
    "lat": 37.5577822,
    "lng": 126.8607457,
    "gu": "강서구",
    "dong": "등촌동",
    "estbDd": "20040303"
  },
  {
    "id": "JDQ4MTg4MSM1MSMkMiMkNCMkMDAkNDgxOTYxIzIxIyQxIyQ5IyQ5MiQ0NjEwMDIjNDEjJDEjJDgjJDgz",
    "name": "그녀의정원여성의원",
    "addr": "서울특별시 강남구 언주로 303, 지하2층 (역삼동)",
    "tel": "02-3453-2855",
    "lat": 37.4946081,
    "lng": 127.0461347,
    "gu": "강남구",
    "dong": "역삼동",
    "estbDd": "20110920",
    "homepage": "https://blog.naver.com/derama_obgy",
    "category": "병원,의원>산부인과"
  },
  {
    "id": "JDQ4MTg4MSM1MSMkMiMkNCMkMDAkNTgxOTYxIzQxIyQxIyQ3IyQ5MiQyNjE4MzIjNTEjJDEjJDYjJDgz",
    "name": "그대의봄여성의원",
    "addr": "서울특별시 광진구 능동로 290, 삼일빌딩 2층 (능동)",
    "tel": "02-6223-0920",
    "lat": 37.5555833,
    "lng": 127.0789792,
    "gu": "광진구",
    "dong": "능동",
    "estbDd": "20210107",
    "homepage": "http://www.yourbom.com",
    "category": "병원,의원>산부인과"
  },
  {
    "id": "JDQ4MTg4MSM1MSMkMiMkNCMkMDAkNDgxMzUxIzIxIyQyIyQxIyQwMCQzNjE0ODEjNTEjJDEjJDYjJDgz",
    "name": "그랑메디의원",
    "addr": "서울특별시 중구 명동7길 21, 명동아르누보센텀 406호 (을지로2가)",
    "tel": "02-775-0885",
    "lat": 37.5647371,
    "lng": 126.9838787,
    "gu": "중구",
    "dong": "을지로2가",
    "estbDd": "20060515",
    "homepage": "http://www.granmedi.co.kr",
    "category": "병원,의원>피부과"
  },
  {
    "id": "JDQ4MTg4MSM1MSMkMiMkNCMkMDAkNTgxOTYxIzMxIyQxIyQ3IyQ2MiQ0NjE0ODEjNjEjJDEjJDgjJDgz",
    "name": "그랜드연합의원",
    "addr": "서울특별시 관악구 난곡로 231, 2층 (신림동)",
    "tel": "02-853-8575",
    "lat": 37.4749558,
    "lng": 126.916633,
    "gu": "관악구",
    "dong": "신림동",
    "estbDd": "20200929",
    "homepage": "https://grandclinic.qshop.ai/",
    "category": "건강,의료>병원,의원"
  },
  {
    "id": "JDQ4MTg4MSM1MSMkMiMkNCMkMDAkMzgxOTYxIzMxIyQxIyQ3IyQ4MiQyNjEwMDIjNDEjJDEjJDQjJDgz",
    "name": "그랜드피부과의원",
    "addr": "서울특별시 송파구 오금로 506, (거여동, 일동빌딩 5층)",
    "tel": "02-408-0345",
    "lat": 37.4929177,
    "lng": 127.1449346,
    "gu": "송파구",
    "dong": "거여동",
    "estbDd": "20080528",
    "homepage": "https://blog.naver.com/iouderm",
    "category": "병원,의원>피부과"
  },
  {
    "id": "JDQ4MTg4MSM1MSMkMiMkOCMkMDAkMzgxMzUxIzExIyQxIyQzIyQ5OSQzNjE0ODEjNjEjJDEjJDQjJDgz",
    "name": "그랜트피부과의원",
    "addr": "서울특별시 광진구 천호대로 549, 지타워 3층 (중곡동)",
    "tel": "02-2039-1477",
    "lat": 37.5576985,
    "lng": 127.0792261,
    "gu": "광진구",
    "dong": "중곡동",
    "estbDd": "20210629",
    "homepage": "http://www.grantskin.com",
    "category": "병원,의원>피부과"
  },
  {
    "id": "JDQ4MTg4MSM1MSMkMiMkOCMkMDAkMzgxOTYxIzMxIyQxIyQzIyQ3MiQ0NjE0ODEjNzEjJDEjJDgjJDgz",
    "name": "그리니피부과의원",
    "addr": "서울특별시 서초구 방배천로2길 5, 성지빌딩 2층 (방배동)",
    "tel": "02-586-5500",
    "lat": 37.4772064,
    "lng": 126.9831584,
    "gu": "서초구",
    "dong": "방배동",
    "estbDd": "20240605",
    "homepage": "http://pf.kakao.com/_ElxgcG",
    "category": "병원,의원>피부과"
  },
  {
    "id": "JDQ4MTg4MSM1MSMkMiMkNCMkMDAkNTgxOTYxIzExIyQxIyQ3IyQ3OSQyNjE0ODEjNDEjJDEjJDQjJDgz",
    "name": "그린몰의원",
    "addr": "서울특별시 강남구 도산대로 107, BIO, 5층일부, 7층, 8층일부 (신사동)",
    "tel": "02-517-9122",
    "lat": 37.5168631,
    "lng": 127.0201484,
    "gu": "강남구",
    "dong": "신사동",
    "estbDd": "20180531",
    "homepage": "http://www.greenmallclinic.co.kr",
    "category": "병원,의원>내과"
  },
  {
    "id": "JDQ4MTg4MSM1MSMkMiMkOCMkMDAkMzgxOTYxIzIxIyQxIyQxIyQwMyQzNjEwMDIjNjEjJDEjJDQjJDgz",
    "name": "글로리의원",
    "addr": "서울특별시 강남구 봉은사로 207, KJ빌딩 3층 (논현동)",
    "tel": "02-6958-7525",
    "lat": 37.5078454,
    "lng": 127.0346819,
    "gu": "강남구",
    "dong": "논현동",
    "estbDd": "20231229",
    "homepage": "https://gloryclinic.co.kr",
    "category": "병원,의원>피부과"
  },
  {
    "id": "JDQ4MTg4MSM1MSMkMiMkOCMkMDAkMzgxMTkxIzMxIyQxIyQzIyQ5MiQyNjE4MzIjNjEjJDEjJDgjJDgz",
    "name": "글로리의원",
    "addr": "서울특별시 중구 퇴계로 234, 민국저축은행 1층 (충무로5가)",
    "tel": "02-2038-6706",
    "lat": 37.5618762,
    "lng": 126.9979486,
    "gu": "중구",
    "dong": "충무로5가",
    "estbDd": "20260211",
    "homepage": "https://gloryclinic-md.co.kr",
    "category": "병원,의원>피부과"
  },
  {
    "id": "JDQ4MTg4MSM1MSMkMiMkOCMkMDAkMzgxOTYxIzExIyQxIyQzIyQ2MiQzNjEyMjIjNDEjJDEjJDgjJDgz",
    "name": "글로비지테라안티에이징의원",
    "addr": "서울특별시 강남구 논현로 843, EGI빌딩 7층 (신사동)",
    "tel": "02-516-3398",
    "lat": 37.5243998,
    "lng": 127.0279778,
    "gu": "강남구",
    "dong": "신사동",
    "estbDd": "20230617",
    "homepage": "https://blog.naver.com/gthera",
    "category": "병원,의원>피부과"
  },
  {
    "id": "JDQ4MTg4MSM1MSMkMiMkOCMkMDAkMzgxMzUxIzExIyQyIyQzIyQwMCQyNjEwMDIjODEjJDEjJDIjJDgz",
    "name": "글로우의원",
    "addr": "서울특별시 서초구 강남대로 337, 11층 (서초동)",
    "tel": "02-2039-2460",
    "lat": 37.4930974,
    "lng": 127.0294983,
    "gu": "서초구",
    "dong": "서초동",
    "estbDd": "20210701",
    "homepage": "https://booking.naver.com/booking/13/bizes/563224",
    "category": "병원,의원>피부과"
  },
  {
    "id": "JDQ4MTg4MSM1MSMkMiMkOCMkMDAkMzgxMTkxIzMxIyQxIyQzIyQ3OSQ0NjEwMDIjNjEjJDEjJDAjJDgz",
    "name": "글로우포트의원",
    "addr": "서울특별시 강서구 화곡로68길 3, 3층 일부호 (등촌동)",
    "tel": "02-3662-6770",
    "lat": 37.5595837,
    "lng": 126.8547379,
    "gu": "강서구",
    "dong": "등촌동",
    "estbDd": "20251222",
    "homepage": "https://glowport.kr/",
    "category": "병원,의원>피부과"
  },
  {
    "id": "JDQ4MTg4MSM1MSMkMiMkMCMkMDAkNTgxOTYxIzIxIyQyIyQxIyQwMCQzNjEyMjIjNTEjJDEjJDYjJDgz",
    "name": "글로웰의원",
    "addr": "서울특별시 영등포구 의사당대로1길 34, 302호 (여의도동, 인영빌딩)",
    "tel": "02-2631-9900",
    "lat": 37.5200608,
    "lng": 126.9307924,
    "gu": "영등포구",
    "dong": "여의도동",
    "estbDd": "20021230",
    "homepage": "https://www.youtube.com/channel/UC4QQoSyFPbvnYW0zQNZIIKw",
    "category": "병원,의원>피부과"
  },
  {
    "id": "JDQ4MTg4MSM1MSMkMiMkMCMkMDAkNTgxMzUxIzUxIyQxIyQ1IyQ2MiQ0NjE0ODEjNjEjJDEjJDgjJDgz",
    "name": "금호의원",
    "addr": "서울특별시 성동구 행당로 35, 1층 (금호동1가)",
    "tel": "02-2291-2543",
    "lat": 37.5558949,
    "lng": 127.0235065,
    "gu": "성동구",
    "dong": "금호동1가",
    "estbDd": "20140923"
  },
  {
    "id": "JDQ4MTg4MSM1MSMkMiMkNCMkMDAkNDgxNzAyIzMxIyQxIyQ3IyQ5MiQzNjE0ODEjNjEjJDEjJDAjJDgz",
    "name": "기분좋은연세365의원",
    "addr": "서울특별시 은평구 응암로 223, 2층 3층 (응암동)",
    "tel": "02-372-0365",
    "lat": 37.5919794,
    "lng": 126.9174155,
    "gu": "은평구",
    "dong": "응암동",
    "estbDd": "20110511"
  },
  {
    "id": "JDQ4MTg4MSM1MSMkMiMkNCMkMDAkNTgxMzUxIzExIyQxIyQzIyQ4OSQzNjE4MzIjNTEjJDEjJDIjJDgz",
    "name": "기분좋은피부과의원",
    "addr": "서울특별시 강남구 도산대로 211, 동현빌딩 4층 (신사동)",
    "tel": "02-512-1675",
    "lat": 37.5206378,
    "lng": 127.0297195,
    "gu": "강남구",
    "dong": "신사동",
    "estbDd": "20120507",
    "homepage": "http://www.feelsogoodclinic.com",
    "category": "병원,의원>피부과"
  },
  {
    "id": "JDQ4MTg4MSM1MSMkMiMkOCMkMDAkMzgxOTYxIzExIyQyIyQzIyQwMCQyNjEyMjIjNDEjJDEjJDgjJDgz",
    "name": "기브미의원",
    "addr": "서울특별시 서초구 강남대로 439, 유화빌딩 1201호 (서초동)",
    "tel": "",
    "lat": 37.5015461,
    "lng": 127.0254021,
    "gu": "서초구",
    "dong": "서초동",
    "estbDd": "20230525",
    "homepage": "http://pf.kakao.com/_xjzxbgxj/chat",
    "category": "병원,의원>피부과"
  },
  {
    "id": "JDQ4MTg4MSM1MSMkMiMkMCMkMDAkNDgxMTkxIzExIyQxIyQ3IyQ5MiQ0NjEwMDIjNjEjJDEjJDAjJDgz",
    "name": "기앤미의원",
    "addr": "서울특별시 영등포구 의사당대로1길 11, 2층 (여의도동, 메종리브르오피스텔)",
    "tel": "02-785-2557",
    "lat": 37.519225,
    "lng": 126.9285868,
    "gu": "영등포구",
    "dong": "여의도동",
    "estbDd": "20160106"
  },
  {
    "id": "JDQ4MTg4MSM1MSMkMiMkNCMkMDAkNDgxNzAyIzUxIyQxIyQ1IyQ4OSQzNjE4MzIjNjEjJDEjJDAjJDgz",
    "name": "김낙인피부과의원",
    "addr": "서울특별시 용산구 한강대로 259, 210,211호 (갈월동, 고려에이트리움)",
    "tel": "02-2039-7550",
    "lat": 37.54159,
    "lng": 126.9724256,
    "gu": "용산구",
    "dong": "갈월동",
    "estbDd": "20170209"
  },
  {
    "id": "JDQ4MTg4MSM1MSMkMiMkNCMkMDAkMzgxMzUxIzMxIyQxIyQzIyQxMyQyNjE4MzIjNjEjJDEjJDgjJDgz",
    "name": "김남일의원",
    "addr": "서울특별시 도봉구 도봉로 727-1, 5,6층 (방학동)",
    "tel": "02-955-3554",
    "lat": 37.6694582,
    "lng": 127.0431869,
    "gu": "도봉구",
    "dong": "방학동",
    "estbDd": "19970715"
  },
  {
    "id": "JDQ4MTg4MSM1MSMkMiMkMCMkMDAkNDgxMzUxIzExIyQxIyQ3IyQxMyQyNjEwMDIjNTEjJDEjJDIjJDgz",
    "name": "김덕현피부과의원",
    "addr": "서울특별시 강남구 강남대로 532, 2층 (논현동, 신성빌딩)",
    "tel": "02-549-8599",
    "lat": 37.5095804,
    "lng": 127.0224836,
    "gu": "강남구",
    "dong": "논현동",
    "estbDd": "19860721"
  },
  {
    "id": "JDQ4MTg4MSM1MSMkMiMkNCMkMDAkMzgxOTYxIzExIyQxIyQzIyQ3OSQ0NjEwMDIjNTEjJDEjJDYjJDgz",
    "name": "김동건피부과의원",
    "addr": "서울특별시 송파구 마천로 41, (방이동, 5층)",
    "tel": "02-414-7557",
    "lat": 37.5090498,
    "lng": 127.1255268,
    "gu": "송파구",
    "dong": "방이동",
    "estbDd": "20030424",
    "homepage": "http://www.dkkskin.com/",
    "category": "병원,의원>피부과"
  },
  {
    "id": "JDQ4MTg4MSM1MSMkMiMkMCMkMDAkNTgxMzUxIzQxIyQxIyQ3IyQ2MiQ0NjE0ODEjNTEjJDEjJDYjJDgz",
    "name": "김동준피부과의원",
    "addr": "서울특별시 성동구 행당로 87, 405호 (행당동, 대림리빙프라자)",
    "tel": "02-2281-6589",
    "lat": 37.5573015,
    "lng": 127.0285419,
    "gu": "성동구",
    "dong": "행당동",
    "estbDd": "20000110",
    "homepage": "http://www.hana-skin.com/",
    "category": "병원,의원>피부과"
  },
  {
    "id": "JDQ4MTg4MSM1MSMkMiMkMCMkMDAkMzgxMTkxIzExIyQxIyQzIyQ4MiQzNjEwMDIjNjEjJDEjJDgjJDgz",
    "name": "김명애피부과의원",
    "addr": "서울특별시 서초구 사평대로 18, 학림빌딩 202호중 일부(표시상203호)호 (방배동)",
    "tel": "02-599-2419",
    "lat": 37.4982026,
    "lng": 126.9864421,
    "gu": "서초구",
    "dong": "방배동",
    "estbDd": "19771104"
  },
  {
    "id": "JDQ4MTg4MSM1MSMkMiMkNCMkMDAkMzgxOTYxIzQxIyQxIyQ3IyQxMyQzNjEwMDIjNDEjJDEjJDgjJDgz",
    "name": "김병철의원",
    "addr": "서울특별시 도봉구 노해로65길 14-3, (창동)",
    "tel": "02-974-7852",
    "lat": 37.6520779,
    "lng": 127.0467721,
    "gu": "도봉구",
    "dong": "창동",
    "estbDd": "20140304"
  },
  {
    "id": "JDQ4MTg4MSM1MSMkMiMkMCMkMDAkNDgxOTYxIzIxIyQxIyQ1IyQ3OSQzNjE0ODEjNDEjJDEjJDQjJDgz",
    "name": "김성호피부과의원",
    "addr": "서울특별시 광진구 뚝섬로 558, (자양동)",
    "tel": "02-456-9721",
    "lat": 37.5341181,
    "lng": 127.0718481,
    "gu": "광진구",
    "dong": "자양동",
    "estbDd": "19900406"
  },
  {
    "id": "JDQ4MTg4MSM1MSMkMiMkNCMkMDAkNDgxMTkxIzMxIyQxIyQzIyQxMyQzNjE0ODEjNzEjJDEjJDgjJDgz",
    "name": "김소영피부과의원",
    "addr": "서울특별시 서대문구 통일로 448, 3층 (홍제동)",
    "tel": "02-396-0522",
    "lat": 37.5888423,
    "lng": 126.9444584,
    "gu": "서대문구",
    "dong": "홍제동",
    "estbDd": "20140501",
    "homepage": "https://www.syclinic.co.kr/",
    "category": "병원,의원>피부과"
  },
  {
    "id": "JDQ4MTg4MSM1MSMkMiMkNCMkMDAkNTgxOTYxIzQxIyQxIyQ3IyQ2MiQzNjEwMDIjODEjJDEjJDIjJDgz",
    "name": "김송이의원",
    "addr": "서울특별시 강남구 선릉로158길 15, 1층 (청담동)",
    "tel": "02-6406-8443",
    "lat": 37.525678,
    "lng": 127.0413332,
    "gu": "강남구",
    "dong": "청담동",
    "estbDd": "20201228",
    "homepage": "https://www.ksy-clinic.co.kr/",
    "category": "병원,의원>피부과"
  },
  {
    "id": "JDQ4MTg4MSM1MSMkMiMkNCMkMDAkNDgxMTkxIzUxIyQxIyQ1IyQ3OSQzNjEyMjIjNTEjJDEjJDYjJDgz",
    "name": "김숙희여성의원",
    "addr": "서울특별시 광진구 광나루로 360, 2층 (화양동)",
    "tel": "02-467-8275",
    "lat": 37.5478764,
    "lng": 127.0699504,
    "gu": "광진구",
    "dong": "화양동",
    "estbDd": "20150210",
    "homepage": "https://blog.naver.com/omgksh0830",
    "category": "병원,의원>산부인과",
    "homepage_status": "no_official"
  },
  {
    "id": "JDQ4MTg4MSM1MSMkMiMkMCMkMDAkNDgxNzAyIzQxIyQyIyQ3IyQwMCQ0NjE0ODEjNDEjJDEjJDgjJDgz",
    "name": "김스의원",
    "addr": "서울특별시 강남구 압구정로80길 37, 3층 (청담동)",
    "tel": "02-541-7065",
    "lat": 37.5243737,
    "lng": 127.0435927,
    "gu": "강남구",
    "dong": "청담동",
    "estbDd": "20080825"
  },
  {
    "id": "JDQ4MTg4MSM1MSMkMiMkMCMkMDAkNDgxMzUxIzQxIyQyIyQ3IyQwMCQyNjEwMDIjNzEjJDEjJDgjJDgz",
    "name": "김시효의원",
    "addr": "서울특별시 서초구 본마을4길 1, 1층 (신원동)",
    "tel": "542-1090",
    "lat": 37.4534989,
    "lng": 127.0551249,
    "gu": "서초구",
    "dong": "신원동",
    "estbDd": "20160421",
    "homepage": "https://youtube.com/@kimsihyo",
    "category": "병원,의원>가정의학과"
  },
  {
    "id": "JDQ4MTg4MSM1MSMkMiMkNCMkMDAkMzgxMzUxIzExIyQxIyQzIyQ5MiQzNjEyMjIjNjEjJDEjJDAjJDgz",
    "name": "김앤김피부과의원",
    "addr": "서울특별시 강동구 천호대로 1027, (천호동, 일동통상천호빌딩)",
    "tel": "02-470-0579",
    "lat": 37.5381742,
    "lng": 127.1263458,
    "gu": "강동구",
    "dong": "천호동",
    "estbDd": "20020302"
  },
  {
    "id": "JDQ4MTg4MSM1MSMkMiMkNCMkMDAkNDgxOTYxIzIxIyQxIyQ5IyQxMyQyNjEyMjIjODEjJDEjJDYjJDgz",
    "name": "김앤방여성의원",
    "addr": "서울특별시 동작구 상도로37길 62, 3층 (상도동)",
    "tel": "02-815-5331",
    "lat": 37.498757,
    "lng": 126.9520894,
    "gu": "동작구",
    "dong": "상도동",
    "estbDd": "20111017",
    "homepage": "https://www.kimandbang.com",
    "category": "병원,의원>산부인과"
  },
  {
    "id": "JDQ4MTg4MSM1MSMkMiMkNCMkMDAkMzgxMzUxIzIxIyQxIyQ5IyQ3MiQzNjE0ODEjODEjJDEjJDYjJDgz",
    "name": "김연진의 퓨린피부과의원",
    "addr": "서울특별시 서초구 잠원로 24, 4층 401,416호호 (반포동, 반포자이프라자)",
    "tel": "3477-7070",
    "lat": 37.5071118,
    "lng": 127.0098751,
    "gu": "서초구",
    "dong": "반포동",
    "estbDd": "20070427",
    "homepage": "https://drpureen.com/",
    "category": "병원,의원>피부과"
  },
  {
    "id": "JDQ4MTg4MSM1MSMkMiMkNCMkMDAkMzgxNzAyIzIxIyQxIyQ1IyQ4OSQzNjE0ODEjNDEjJDEjJDQjJDgz",
    "name": "김영재의원",
    "addr": "서울특별시 강남구 삼성로 772, 8층 일부호 (청담동)",
    "tel": "02-546-7171",
    "lat": 37.5236212,
    "lng": 127.0480449,
    "gu": "강남구",
    "dong": "청담동",
    "estbDd": "20210430",
    "homepage": "https://www.kimyoungjaeclinic.com",
    "category": "병원,의원>성형외과"
  },
  {
    "id": "JDQ4MTg4MSM1MSMkMiMkMCMkMDAkNDgxMTkxIzIxIyQxIyQxIyQ3OSQ0NjE0ODEjNDEjJDEjJDgjJDgz",
    "name": "김영환피부과의원",
    "addr": "서울특별시 서대문구 연희로 407, (홍은동, 백련빌딩)",
    "tel": "02-3216-2787",
    "lat": 37.5912907,
    "lng": 126.9405042,
    "gu": "서대문구",
    "dong": "홍은동",
    "estbDd": "19920729",
    "homepage": "http://김영환피부과.kr",
    "category": "병원,의원>피부과"
  },
  {
    "id": "JDQ4MTg4MSM1MSMkMiMkMCMkMDAkNDgxMTkxIzMxIyQxIyQzIyQ3MiQzNjEyMjIjNDEjJDEjJDgjJDgz",
    "name": "김유찬피부과의원",
    "addr": "서울특별시 양천구 목동서로 67, (목동, 우성에펠타운빌딩)",
    "tel": "02-2654-0031",
    "lat": 37.5363941,
    "lng": 126.878557,
    "gu": "양천구",
    "dong": "목동",
    "estbDd": "19930911"
  },
  {
    "id": "JDQ4MTg4MSM1MSMkMiMkMCMkMDAkMzgxNzAyIzIxIyQxIyQxIyQ4OSQzNjEwMDIjODEjJDEjJDIjJDgz",
    "name": "김윤섭피부과의원",
    "addr": "서울특별시 동작구 동작대로 129, (사당동)",
    "tel": "02-591-7789",
    "lat": 37.4882965,
    "lng": 126.9818938,
    "gu": "동작구",
    "dong": "사당동",
    "estbDd": "19840409",
    "homepage": "https://www.kimskinclinic.co.kr",
    "category": "병원,의원>피부과"
  },
  {
    "id": "JDQ4MTg4MSM1MSMkMiMkNCMkMDAkMzgxMzUxIzExIyQxIyQ3IyQwMyQzNjE4MzIjNjEjJDEjJDgjJDgz",
    "name": "김의원",
    "addr": "서울특별시 관악구 신림로 368, 2층 (신림동)",
    "tel": "02-855-7541",
    "lat": 37.4871231,
    "lng": 126.9292677,
    "gu": "관악구",
    "dong": "신림동",
    "estbDd": "20120203",
    "homepage": "https://blog.naver.com/kim_uiwon",
    "category": "건강,의료>병원,의원"
  },
  {
    "id": "JDQ4MTg4MSM1MSMkMiMkNCMkMDAkNTgxMzUxIzMxIyQxIyQ3IyQ5OSQzNjEyMjIjNDEjJDEjJDQjJDgz",
    "name": "김의원",
    "addr": "서울특별시 서대문구 연희로 124, (연희동)",
    "tel": "02-337-3119",
    "lat": 37.5686,
    "lng": 126.9326638,
    "gu": "서대문구",
    "dong": "연희동",
    "estbDd": "19940718",
    "homepage": "http://drkim119.com",
    "category": "건강,의료>병원,의원"
  },
  {
    "id": "JDQ4MTg4MSM1MSMkMiMkMCMkMDAkMzgxNzAyIzExIyQxIyQzIyQ4OSQyNjE0ODEjNjEjJDEjJDAjJDgz",
    "name": "김이중피부과의원",
    "addr": "서울특별시 강동구 양재대로 1355, (성내동)",
    "tel": "02-484-6455",
    "lat": 37.5274004,
    "lng": 127.135632,
    "gu": "강동구",
    "dong": "성내동",
    "estbDd": "19820429"
  },
  {
    "id": "JDQ4MTg4MSM1MSMkMiMkMCMkMDAkNDgxOTYxIzMxIyQyIyQzIyQwMCQzNjE4MzIjODEjJDEjJDYjJDgz",
    "name": "김인섭의원",
    "addr": "서울특별시 강남구 논현로 64, 삼우빌딩 3층 (개포동)",
    "tel": "02-529-4318",
    "lat": 37.4759149,
    "lng": 127.0468937,
    "gu": "강남구",
    "dong": "개포동",
    "estbDd": "20210709",
    "homepage": "http://www.kimclinic.net",
    "category": "병원,의원>외과"
  },
  {
    "id": "JDQ4MTg4MSM1MSMkMiMkMCMkMDAkNDgxOTYxIzMxIyQxIyQzIyQxMyQzNjEyMjIjNjEjJDEjJDAjJDgz",
    "name": "김인철의원",
    "addr": "서울특별시 관악구 시흥대로 558-1, 4층 (신림동, G 밸리마인드)",
    "tel": "02-868-5300",
    "lat": 37.482791,
    "lng": 126.9019936,
    "gu": "관악구",
    "dong": "신림동",
    "estbDd": "19931115"
  },
  {
    "id": "JDQ4MTg4MSM1MSMkMiMkMCMkMDAkNDgxOTYxIzExIyQxIyQ3IyQ5MiQzNjEwMDIjNjEjJDEjJDgjJDgz",
    "name": "김재선피부과의원",
    "addr": "서울특별시 광진구 자양로 48, (자양동)",
    "tel": "02-455-0080",
    "lat": 37.5323816,
    "lng": 127.0857695,
    "gu": "광진구",
    "dong": "자양동",
    "estbDd": "19891128"
  },
  {
    "id": "JDQ4MTg4MSM1MSMkMiMkMCMkMDAkNDgxMzUxIzIxIyQxIyQ5IyQ3OSQyNjEwMDIjNjEjJDEjJDgjJDgz",
    "name": "김재준피부과의원",
    "addr": "서울특별시 관악구 관악로 231-1, 3층 (봉천동)",
    "tel": "02-887-8517",
    "lat": 37.4853486,
    "lng": 126.9555945,
    "gu": "관악구",
    "dong": "봉천동",
    "estbDd": "19870418"
  },
  {
    "id": "JDQ4MTg4MSM1MSMkMiMkMCMkMDAkMzgxNzAyIzMxIyQxIyQ3IyQxMyQzNjE0ODEjNTEjJDEjJDYjJDgz",
    "name": "김정피부과의원",
    "addr": "서울특별시 성북구 동소문로 315, 지상8층 (길음동, 현대아파트)",
    "tel": "02-2117-1890",
    "lat": 37.6084082,
    "lng": 127.0287466,
    "gu": "성북구",
    "dong": "길음동",
    "estbDd": "20010829"
  },
  {
    "id": "JDQ4MTg4MSM1MSMkMiMkMCMkMDAkMzgxMTkxIzQxIyQxIyQ3IyQxMyQyNjE0ODEjNDEjJDEjJDgjJDgz",
    "name": "김주필의원",
    "addr": "서울특별시 성동구 아차산로7가길 1, (성수동2가)",
    "tel": "02-463-3321",
    "lat": 37.5462299,
    "lng": 127.0546989,
    "gu": "성동구",
    "dong": "성수동2가",
    "estbDd": "19810527"
  },
  {
    "id": "JDQ4MTg4MSM1MSMkMiMkMCMkMDAkMzgxNzAyIzQxIyQyIyQ3IyQwMCQ0NjEwMDIjNzEjJDEjJDgjJDgz",
    "name": "김지수피부과의원",
    "addr": "서울특별시 구로구 개봉로 57-1, 2층 (개봉동)",
    "tel": "02-2682-1223",
    "lat": 37.4908242,
    "lng": 126.8557507,
    "gu": "구로구",
    "dong": "개봉동",
    "estbDd": "19850128"
  },
  {
    "id": "JDQ4MTg4MSM1MSMkMiMkNCMkMDAkNDgxMTkxIzUxIyQxIyQxIyQ3MiQyNjE4MzIjODEjJDEjJDYjJDgz",
    "name": "김지은피부과의원",
    "addr": "서울특별시 송파구 송파대로 345, 1A동 3041호일부,3042호 (가락동, 헬리오시티)",
    "tel": "02-414-0975",
    "lat": 37.4976183,
    "lng": 127.1072604,
    "gu": "송파구",
    "dong": "가락동",
    "estbDd": "20141222"
  },
  {
    "id": "JDQ4MTg4MSM1MSMkMiMkMCMkMDAkNDgxOTYxIzQxIyQxIyQ3IyQ3MiQyNjEyMjIjNjEjJDEjJDQjJDgz",
    "name": "김진권피부과의원",
    "addr": "서울특별시 강남구 일원로 33, 금성빌딩 (일원동)",
    "tel": "02-445-5373",
    "lat": 37.4909192,
    "lng": 127.0810631,
    "gu": "강남구",
    "dong": "일원동",
    "estbDd": "19910506"
  },
  {
    "id": "JDQ4MTg4MSM1MSMkMiMkNCMkMDAkNDgxOTYxIzMxIyQxIyQzIyQ2MiQzNjEyMjIjNDEjJDEjJDgjJDgz",
    "name": "김진의원",
    "addr": "서울특별시 마포구 망원로 78, (망원동)",
    "tel": "02-333-2967",
    "lat": 37.5573228,
    "lng": 126.9055225,
    "gu": "마포구",
    "dong": "망원동",
    "estbDd": "20010502"
  },
  {
    "id": "JDQ4MTg4MSM1MSMkMiMkNCMkMDAkMzgxMTkxIzIxIyQxIyQ1IyQ2MiQyNjEyMjIjNDEjJDEjJDQjJDgz",
    "name": "김태균의원",
    "addr": "서울특별시 송파구 송파대로32길 15, (가락동, 금호상가 208호)",
    "tel": "02-406-7950",
    "lat": 37.4967033,
    "lng": 127.1162029,
    "gu": "송파구",
    "dong": "가락동",
    "estbDd": "19990316"
  },
  {
    "id": "JDQ4MTg4MSM1MSMkMiMkMCMkMDAkMzgxOTYxIzExIyQyIyQ3IyQwMCQzNjE0ODEjNzEjJDEjJDgjJDgz",
    "name": "김피부과의원",
    "addr": "서울특별시 강북구 도봉로 53, (미아동)",
    "tel": "02-980-5687",
    "lat": 37.6138233,
    "lng": 127.0296233,
    "gu": "강북구",
    "dong": "미아동",
    "estbDd": "19760728"
  },
  {
    "id": "JDQ4MTg4MSM1MSMkMiMkMCMkMDAkNDgxNzAyIzMxIyQxIyQ3IyQwMyQzNjE0ODEjODEjJDEjJDIjJDgz",
    "name": "김한중피부과의원",
    "addr": "서울특별시 중랑구 신내로 82, 301호 (신내동, 금강프라자)",
    "tel": "02-3421-7563",
    "lat": 37.6066852,
    "lng": 127.0955682,
    "gu": "중랑구",
    "dong": "신내동",
    "estbDd": "19970428"
  },
  {
    "id": "JDQ4MTg4MSM1MSMkMiMkMCMkMDAkNDgxMTkxIzUxIyQxIyQxIyQ3MiQzNjE4MzIjODEjJDEjJDIjJDgz",
    "name": "김혜영피부과의원",
    "addr": "서울특별시 강남구 선릉로 312, 303호 (대치동)",
    "tel": "02-567-0307",
    "lat": 37.4975613,
    "lng": 127.0526586,
    "gu": "강남구",
    "dong": "대치동",
    "estbDd": "19990503",
    "homepage": "http://www.doctor-skin.co.kr/",
    "category": "병원,의원>피부과"
  },
  {
    "id": "JDQ4MTg4MSM1MSMkMiMkMCMkMDAkNTgxMzUxIzIxIyQxIyQ1IyQ4OSQzNjEwMDIjNDEjJDEjJDgjJDgz",
    "name": "김희옥피부과의원",
    "addr": "서울특별시 성동구 독서당로 300, 5층 (금호동4가)",
    "tel": "02-2232-7582",
    "lat": 37.5479653,
    "lng": 127.0221197,
    "gu": "성동구",
    "dong": "금호동4가",
    "estbDd": "19990204"
  },
  {
    "id": "JDQ4MTg4MSM1MSMkMiMkOCMkMDAkMzgxMTkxIzIxIyQxIyQxIyQ3MiQzNjEwMDIjODEjJDEjJDYjJDgz",
    "name": "꼬모의원",
    "addr": "서울특별시 용산구 이태원로 237, 4층 (한남동)",
    "tel": "",
    "lat": 37.5362706,
    "lng": 126.9995105,
    "gu": "용산구",
    "dong": "한남동",
    "estbDd": "20250624",
    "homepage": "https://www.youtube.com/@Healer_moonji",
    "category": "병원,의원>피부과"
  },
  {
    "id": "JDQ4MTg4MSM1MSMkMiMkNCMkMDAkNTgxMzUxIzExIyQxIyQ3IyQ4OSQzNjEyMjIjNDEjJDEjJDgjJDgz",
    "name": "꽃길의원",
    "addr": "서울특별시 종로구 대학로 1, 경인빌딩 201호 (종로5가)",
    "tel": "02-747-4230",
    "lat": 37.5713376,
    "lng": 127.0017799,
    "gu": "종로구",
    "dong": "종로5가",
    "estbDd": "20170619"
  },
  {
    "id": "JDQ4MTg4MSM1MSMkMiMkNCMkMDAkNDgxMTkxIzUxIyQxIyQ1IyQ5OSQzNjEyMjIjODEjJDEjJDIjJDgz",
    "name": "끌로에의원",
    "addr": "서울특별시 강남구 선릉로 823, 6층 (신사동)",
    "tel": "517-5667",
    "lat": 37.5256156,
    "lng": 127.0393899,
    "gu": "강남구",
    "dong": "신사동",
    "estbDd": "20080728",
    "homepage": "http://www.chloe-ps.com/",
    "category": "병원,의원>성형외과"
  },
  {
    "id": "JDQ4MTg4MSM1MSMkMiMkNCMkMDAkNDgxNzAyIzIxIyQyIyQ1IyQwMCQyNjE0ODEjNTEjJDEjJDYjJDgz",
    "name": "나노의원",
    "addr": "서울특별시 강남구 도산대로57길 6, 3~4층 (청담동)",
    "tel": "3444-6314",
    "lat": 37.5240694,
    "lng": 127.0416311,
    "gu": "강남구",
    "dong": "청담동",
    "estbDd": "20060503",
    "homepage": "http://www.nanoesc.co.kr/",
    "category": "병원,의원>성형외과"
  },
  {
    "id": "JDQ4MTg4MSM1MSMkMiMkMCMkMDAkNTgxOTYxIzMxIyQxIyQ3IyQ4MiQzNjE4MzIjODEjJDEjJDYjJDgz",
    "name": "나눔의원",
    "addr": "서울특별시 강북구 오패산로30길 30, 204,205,206,209,210,211,212호 (미아동, 경남아너스빌)",
    "tel": "986-8575",
    "lat": 37.6159351,
    "lng": 127.0362457,
    "gu": "강북구",
    "dong": "미아동",
    "estbDd": "20090102"
  },
  {
    "id": "JDQ4MTg4MSM1MSMkMiMkNCMkMDAkNDgxNzAyIzUxIyQxIyQxIyQxMyQ0NjEwMDIjNTEjJDEjJDIjJDgz",
    "name": "나라온의원",
    "addr": "서울특별시 마포구 백범로 90, 2층 (대흥동)",
    "tel": "02-711-1907",
    "lat": 37.5478316,
    "lng": 126.9415126,
    "gu": "마포구",
    "dong": "대흥동",
    "estbDd": "20170112",
    "homepage": "https://nalaon.imweb.me/",
    "category": "병원,의원>피부과"
  },
  {
    "id": "JDQ4MTg4MSM1MSMkMiMkNCMkMDAkNTgxOTYxIzExIyQxIyQ3IyQwMyQ0NjE0ODEjNTEjJDEjJDYjJDgz",
    "name": "나를의원",
    "addr": "서울특별시 강남구 도산대로13길 18, 약산빌딩 4층 (신사동)",
    "tel": "02-543-1020",
    "lat": 37.5191931,
    "lng": 127.0234718,
    "gu": "강남구",
    "dong": "신사동",
    "estbDd": "20191106",
    "homepage": "https://blog.naver.com/1004beeny-",
    "category": "병원,의원>피부과"
  },
  {
    "id": "JDQ4MTg4MSM1MSMkMiMkOCMkMDAkMzgxMTkxIzExIyQxIyQ3IyQ4MiQzNjEwMDIjNDEjJDEjJDQjJDgz",
    "name": "나만의즐거운플랜라라플랜의원",
    "addr": "서울특별시 송파구 올림픽로 100, 효창타워 5층 1호 (잠실동)",
    "tel": "02-415-3268",
    "lat": 37.5114163,
    "lng": 127.0816891,
    "gu": "송파구",
    "dong": "잠실동",
    "estbDd": "20250512",
    "homepage": "http://www.lalaplanclinic.com",
    "category": "병원,의원>피부과"
  },
  {
    "id": "JDQ4MTg4MSM1MSMkMiMkNCMkMDAkMzgxOTYxIzMxIyQyIyQzIyQwMCQzNjE0ODEjNjEjJDEjJDgjJDgz",
    "name": "나무의원",
    "addr": "서울특별시 송파구 마천로 29, 5층 (방이동)",
    "tel": "02-422-7799",
    "lat": 37.5095346,
    "lng": 127.1242565,
    "gu": "송파구",
    "dong": "방이동",
    "estbDd": "20170619",
    "homepage": "http://seoulasantop.co.kr/",
    "category": "병원,의원>내과"
  },
  {
    "id": "JDQ4MTg4MSM1MSMkMiMkOCMkMDAkMzgxMzUxIzIxIyQxIyQ1IyQ3OSQzNjE0ODEjNDEjJDEjJDQjJDgz",
    "name": "나미피부과의원",
    "addr": "서울특별시 중랑구 사가정로 384, 3,4층 (면목동)",
    "tel": "02-439-3300",
    "lat": 37.5805409,
    "lng": 127.0872074,
    "gu": "중랑구",
    "dong": "면목동",
    "estbDd": "20220118",
    "homepage": "http://namiskin.co.kr",
    "category": "병원,의원>피부과"
  },
  {
    "id": "JDQ4MTg4MSM1MSMkMiMkNCMkMDAkMzgxNzAyIzIxIyQxIyQ5IyQ2MiQzNjEyMjIjNjEjJDEjJDAjJDgz",
    "name": "나비에스(NABY-S)의원",
    "addr": "서울특별시 구로구 디지털로31길 20, 에이스테크노타워5차 205동 2호 (구로동)",
    "tel": "02-2051-4563",
    "lat": 37.4854994,
    "lng": 126.8943518,
    "gu": "구로구",
    "dong": "구로동",
    "estbDd": "20120801"
  },
  {
    "id": "JDQ4MTg4MSM1MSMkMiMkNCMkMDAkMzgxNzAyIzMxIyQxIyQ3IyQ3MiQzNjEwMDIjNjEjJDEjJDgjJDgz",
    "name": "나세르의원",
    "addr": "서울특별시 서초구 강남대로 435, 주류성빌딩 11층 (서초동)",
    "tel": "02-540-0070",
    "lat": 37.5011826,
    "lng": 127.0255738,
    "gu": "서초구",
    "dong": "서초동",
    "estbDd": "20130826",
    "homepage": "http://petitnacer.com",
    "category": "병원,의원>피부과"
  },
  {
    "id": "JDQ4MTg4MSM1MSMkMiMkNCMkMDAkMzgxOTYxIzExIyQxIyQzIyQ4MiQyNjE0ODEjNTEjJDEjJDYjJDgz",
    "name": "나우리의원",
    "addr": "서울특별시 서초구 바우뫼로7길 8, 우면종합상가 4층 408호 (우면동)",
    "tel": "02-579-8807",
    "lat": 37.4708599,
    "lng": 127.0253951,
    "gu": "서초구",
    "dong": "우면동",
    "estbDd": "20180827"
  },
  {
    "id": "JDQ4MTg4MSM1MSMkMiMkNCMkMDAkNTgxOTYxIzQxIyQxIyQ3IyQ3MiQ0NjE0ODEjNDEjJDEjJDQjJDgz",
    "name": "나으람의원",
    "addr": "서울특별시 강동구 양재대로 1412, 토림빌 2,3,4,5층 (둔촌동)",
    "tel": "02-6956-1133",
    "lat": 37.5320243,
    "lng": 127.1383187,
    "gu": "강동구",
    "dong": "둔촌동",
    "estbDd": "20201224",
    "homepage": "https://blog.naver.com/mcsc57",
    "category": "건강,의료>병원,의원"
  },
  {
    "id": "JDQ4MTg4MSM1MSMkMiMkNCMkMDAkNDgxNzAyIzExIyQxIyQzIyQ2MiQ0NjE0ODEjNzEjJDEjJDgjJDgz",
    "name": "나음피부과의원",
    "addr": "서울특별시 중구 세종대로 13, 화남빌딩 5,6층 (남대문로5가)",
    "tel": "02-6959-7533",
    "lat": 37.558326,
    "lng": 126.9731076,
    "gu": "중구",
    "dong": "남대문로5가",
    "estbDd": "20150415",
    "homepage": "http://www.naeumskin.com/",
    "category": "병원,의원>피부과"
  },
  {
    "id": "JDQ4MTg4MSM1MSMkMiMkNCMkMDAkNDgxOTYxIzIxIyQxIyQ5IyQ5MiQ0NjE0ODEjNTEjJDEjJDYjJDgz",
    "name": "나의미래피부과의원",
    "addr": "서울특별시 영등포구 국제금융로2길 7, 3층 (여의도동, 두레빌딩)",
    "tel": "02-761-1010",
    "lat": 37.5246532,
    "lng": 126.9268443,
    "gu": "영등포구",
    "dong": "여의도동",
    "estbDd": "20110708",
    "homepage": "http://mymirae.co.kr/",
    "category": "병원,의원>피부과"
  },
  {
    "id": "JDQ4MTg4MSM1MSMkMiMkNCMkMDAkNTgxOTYxIzIxIyQxIyQxIyQ2MiQzNjE0ODEjODEjJDEjJDIjJDgz",
    "name": "나의미래피부과의원",
    "addr": "서울특별시 마포구 월드컵북로 381, 2층 208~210호 (상암동, 상암월드컵파크4단지상가)",
    "tel": "02-375-0500",
    "lat": 37.5779529,
    "lng": 126.8898876,
    "gu": "마포구",
    "dong": "상암동",
    "estbDd": "20141121",
    "homepage": "http://my-mirae.com/",
    "category": "병원,의원>피부과"
  },
  {
    "id": "JDQ4MTg4MSM1MSMkMiMkNCMkMDAkMzgxMzUxIzIxIyQxIyQ5IyQ5MiQzNjEwMDIjNDEjJDEjJDgjJDgz",
    "name": "나이스피부과의원",
    "addr": "서울특별시 중구 다산로 96, 4층 (신당동)",
    "tel": "02-2232-2502",
    "lat": 37.5527439,
    "lng": 127.0092105,
    "gu": "중구",
    "dong": "신당동",
    "estbDd": "20020719"
  },
  {
    "id": "JDQ4MTg4MSM1MSMkMiMkNCMkMDAkNDgxMzUxIzIxIyQxIyQ5IyQ3OSQyNjE4MzIjNjEjJDEjJDgjJDgz",
    "name": "나인9의원",
    "addr": "서울특별시 도봉구 도봉로 461, 우림빌딩 5층 502호 (쌍문동)",
    "tel": "02-511-4116",
    "lat": 37.6470525,
    "lng": 127.0333818,
    "gu": "도봉구",
    "dong": "쌍문동",
    "estbDd": "20191002"
  },
  {
    "id": "JDQ4MTg4MSM1MSMkMiMkNCMkMDAkNTgxOTYxIzIxIyQxIyQ5IyQ5MiQyNjE4MzIjNjEjJDEjJDAjJDgz",
    "name": "나인의원",
    "addr": "서울특별시 마포구 양화로 165, 3층 (동교동)",
    "tel": "02-325-9990",
    "lat": 37.5572103,
    "lng": 126.9236203,
    "gu": "마포구",
    "dong": "동교동",
    "estbDd": "20240927",
    "homepage": "https://www.9skin2.co.kr/",
    "category": "병원,의원>피부과"
  },
  {
    "id": "JDQ4MTg4MSM1MSMkMiMkNCMkMDAkNDgxMzUxIzExIyQxIyQzIyQ5MiQyNjEyMjIjNTEjJDEjJDYjJDgz",
    "name": "나인피부과의원",
    "addr": "서울특별시 서초구 강남대로 447, 남서울빌딩 8,9층 (서초동)",
    "tel": "02-599-9990",
    "lat": 37.5021957,
    "lng": 127.0251178,
    "gu": "서초구",
    "dong": "서초동",
    "estbDd": "20200527",
    "homepage": "http://pf.kakao.com/_swRvxb",
    "category": "병원,의원>피부과"
  },
  {
    "id": "JDQ4MTg4MSM1MSMkMiMkOCMkMDAkMzgxOTYxIzMxIyQxIyQ3IyQwMyQzNjE0ODEjNTEjJDEjJDIjJDgz",
    "name": "나인피부과의원",
    "addr": "서울특별시 은평구 통일로 855-8, 연신내진원와이타운 9,10층 901,902,1002호 (갈현동)",
    "tel": "02-353-9990",
    "lat": 37.6191391,
    "lng": 126.92021,
    "gu": "은평구",
    "dong": "갈현동",
    "estbDd": "20081210",
    "homepage": "http://www.9skin.co.kr/",
    "category": "병원,의원>피부과"
  },
  {
    "id": "JDQ4MTg4MSM1MSMkMiMkMCMkMDAkNTgxMzUxIzIxIyQxIyQ5IyQ5OSQzNjEwMDIjNjEjJDEjJDQjJDgz",
    "name": "난곡연세가정의원",
    "addr": "서울특별시 관악구 난곡로 202, 4층 (신림동)",
    "tel": "02-839-1535",
    "lat": 37.4730469,
    "lng": 126.9191782,
    "gu": "관악구",
    "dong": "신림동",
    "estbDd": "19990504"
  },
  {
    "id": "JDQ4MTg4MSM1MSMkMiMkMCMkMDAkMzgxOTYxIzIxIyQxIyQ1IyQwMyQzNjEwMDIjNjEjJDEjJDAjJDgz",
    "name": "남궁설민파티마의원",
    "addr": "서울특별시 강남구 언주로173길 18, (신사동)",
    "tel": "515-1860",
    "lat": 37.5281973,
    "lng": 127.0319968,
    "gu": "강남구",
    "dong": "신사동",
    "estbDd": "19901129"
  },
  {
    "id": "JDQ4MTg4MSM1MSMkMiMkMCMkMDAkNTgxOTYxIzExIyQxIyQzIyQ3MiQzNjE0ODEjODEjJDEjJDYjJDgz",
    "name": "남산의원",
    "addr": "서울특별시 마포구 대흥로 169-0, 201호 (대흥동, 베스텔)",
    "tel": "02-715-6951",
    "lat": 37.5540801,
    "lng": 126.9456615,
    "gu": "마포구",
    "dong": "대흥동",
    "estbDd": "20000810",
    "homepage": "https://blog.naver.com/namsan_since1998",
    "category": "병원,의원>내과"
  },
  {
    "id": "JDQ4MTg4MSM1MSMkMiMkMCMkMDAkNDgxMzUxIzIxIyQxIyQ5IyQ3OSQyNjE0ODEjODEjJDEjJDIjJDgz",
    "name": "남성의원",
    "addr": "서울특별시 동작구 사당로 215, 301호 (사당동, 서림빌딩)",
    "tel": "02-599-1412",
    "lat": 37.4844478,
    "lng": 126.972335,
    "gu": "동작구",
    "dong": "사당동",
    "estbDd": "19870424"
  },
  {
    "id": "JDQ4MTg4MSM1MSMkMiMkNCMkMDAkNDgxMTkxIzUxIyQxIyQ1IyQ3OSQzNjE4MzIjNDEjJDEjJDgjJDgz",
    "name": "내일의원",
    "addr": "서울특별시 송파구 올림픽로 116, 메디시티4층 (잠실동)",
    "tel": "02-3431-1500",
    "lat": 37.5113865,
    "lng": 127.0834983,
    "gu": "송파구",
    "dong": "잠실동",
    "estbDd": "20150211",
    "homepage": "http://nailsclinic.ilikedoc.kr",
    "category": "병원,의원>외과"
  },
  {
    "id": "JDQ4MTg4MSM1MSMkMiMkOCMkMDAkMzgxMTkxIzMxIyQxIyQzIyQ3MiQzNjEwMDIjODEjJDEjJDIjJDgz",
    "name": "너와의원",
    "addr": "서울특별시 서초구 강남대로 385, AHN385 3~4층 (서초동)",
    "tel": "02-581-1668",
    "lat": 37.4970809,
    "lng": 127.0274926,
    "gu": "서초구",
    "dong": "서초동",
    "estbDd": "20260119",
    "homepage": "https://nuwaclinic.com",
    "category": "병원,의원>피부과"
  },
  {
    "id": "JDQ4MTg4MSM1MSMkMiMkOCMkMDAkMzgxOTYxIzQxIyQxIyQ3IyQ4MiQ0NjE0ODEjNzEjJDEjJDgjJDgz",
    "name": "네스트의원",
    "addr": "서울특별시 서초구 강남대로 453, 서초빌딩 4~5층 (서초동)",
    "tel": "",
    "lat": 37.50273,
    "lng": 127.024854,
    "gu": "서초구",
    "dong": "서초동",
    "estbDd": "20241004",
    "homepage": "http://www.nestclinic.kr/",
    "category": "병원,의원>피부과"
  },
  {
    "id": "JDQ4MTg4MSM1MSMkMiMkNCMkMDAkNDgxOTYxIzExIyQyIyQ3IyQwMCQzNjEwMDIjNDEjJDEjJDgjJDgz",
    "name": "네오의원",
    "addr": "서울특별시 금천구 시흥대로 403, (독산동, 셈프레팜)",
    "tel": "02-861-0610",
    "lat": 37.4698141,
    "lng": 126.8974927,
    "gu": "금천구",
    "dong": "독산동",
    "estbDd": "20110127",
    "homepage": "http://www.neoclinic.kr/",
    "category": "병원,의원>피부과"
  },
  {
    "id": "JDQ4MTg4MSM1MSMkMiMkNCMkMDAkMzgxNzAyIzUxIyQxIyQxIyQxMyQzNjE4MzIjNjEjJDEjJDAjJDgz",
    "name": "네이처피부과의원",
    "addr": "서울특별시 강남구 선릉로 753, 6층 (논현동)",
    "tel": "02-512-3375",
    "lat": 37.5218839,
    "lng": 127.0392752,
    "gu": "강남구",
    "dong": "논현동",
    "estbDd": "20100304",
    "homepage": "http://www.drhanskin.com/",
    "category": "병원,의원>피부과"
  },
  {
    "id": "JDQ4MTg4MSM1MSMkMiMkNCMkMDAkNDgxMTkxIzMxIyQxIyQzIyQxMyQyNjEwMDIjNTEjJDEjJDIjJDgz",
    "name": "노드의원",
    "addr": "서울특별시 강남구 테헤란로8길 8, 4층 일부호 (역삼동)",
    "tel": "02-6011-8800",
    "lat": 37.4982517,
    "lng": 127.0310195,
    "gu": "강남구",
    "dong": "역삼동",
    "estbDd": "20251002",
    "homepage": "https://blog.naver.com/ought10312",
    "category": "병원,의원>피부과"
  },
  {
    "id": "JDQ4MTg4MSM1MSMkMiMkNCMkMDAkNTgxMzUxIzUxIyQxIyQ1IyQ3MiQyNjEwMDIjNDEjJDEjJDQjJDgz",
    "name": "노량진튼튼의원",
    "addr": "서울특별시 동작구 만양로 84, 1층 (노량진동, 삼익주상복합아파트)",
    "tel": "02-822-7582",
    "lat": 37.5109209,
    "lng": 126.9450362,
    "gu": "동작구",
    "dong": "노량진동",
    "estbDd": "20190422",
    "homepage": "https://blog.naver.com/nrgtuntun",
    "category": "병원,의원>정형외과"
  },
  {
    "id": "JDQ4MTg4MSM1MSMkMiMkNCMkMDAkMzgxNzAyIzUxIyQxIyQ1IyQxMyQyNjEyMjIjNDEjJDEjJDQjJDgz",
    "name": "노바에스피부과의원",
    "addr": "서울특별시 강남구 강남대로 402, 5층 (역삼동, 시계탑빌딩)",
    "tel": "554-9565",
    "lat": 37.4988176,
    "lng": 127.0278562,
    "gu": "강남구",
    "dong": "역삼동",
    "estbDd": "20120907",
    "homepage": "http://www.novasclinic.co.kr/",
    "category": "병원,의원>피부과"
  },
  {
    "id": "JDQ4MTg4MSM1MSMkMiMkNCMkMDAkNDgxMTkxIzExIyQxIyQzIyQ4OSQzNjE4MzIjNDEjJDEjJDgjJDgz",
    "name": "노바의원",
    "addr": "서울특별시 관악구 은천로 110, 303호 (봉천동, 더블유에스타워)",
    "tel": "02-889-7707",
    "lat": 37.4866708,
    "lng": 126.9473969,
    "gu": "관악구",
    "dong": "봉천동",
    "estbDd": "20190409"
  },
  {
    "id": "JDQ4MTg4MSM1MSMkMiMkNCMkMDAkNTgxOTYxIzExIyQxIyQzIyQ2MiQyNjEwMDIjNDEjJDEjJDgjJDgz",
    "name": "노바피부과의원",
    "addr": "서울특별시 송파구 오금로 507, 5층 (거여동)",
    "tel": "02-449-2430",
    "lat": 37.4932394,
    "lng": 127.1451931,
    "gu": "송파구",
    "dong": "거여동",
    "estbDd": "20040105",
    "homepage": "https://blog.naver.com/novaskin777",
    "category": "병원,의원>피부과"
  },